Name,ID,Lat,Lng,Max Temp,Humidity,Cloudiness,Wind Speed
lagoa,3372964.0,39.05,-27.98,62.94,86.0,100.0,32.86
puerto escondido,3520994.0,15.85,-97.07,82.4,74.0,20.0,11.41
hithadhoo,1282256.0,-0.6,73.08,82.9,75.0,30.0,7.52
carnarvon,2074865.0,-24.87,113.63,75.2,94.0,0.0,9.17
bereda,3105522.0,43.27,-7.54,54.0,87.0,40.0,1.12
neuquen,3843123.0,-38.95,-68.06,71.6,56.0,20.0,8.05
esperance,2071860.0,-33.87,121.9,66.2,68.0,89.0,18.34
puerto ayora,3652764.0,-0.74,-90.35,84.2,66.0,40.0,16.11
langarud,125897.0,37.2,50.15,47.19,42.0,0.0,15.95
barrow,5880054.0,71.29,-156.79,-31.0,96.0,1.0,6.93
narsaq,3421719.0,60.92,-46.05,30.2,30.0,62.0,17.22
kozuchow,3094832.0,51.75,15.59,39.99,89.0,100.0,11.99
butaritari,2110227.0,3.07,172.79,84.47,75.0,95.0,16.82
hobart,2163355.0,-42.88,147.33,64.99,72.0,90.0,9.17
saldanha,3361934.0,-33.01,17.94,62.6,72.0,77.0,6.93
willowmore,939676.0,-33.29,23.49,55.69,90.0,99.0,11.05
chantada,3125212.0,42.61,-7.77,50.0,93.0,40.0,3.36
east london,1006984.0,-33.02,27.91,69.98,64.0,100.0,8.59
whitehorse,6180550.0,60.72,-135.05,32.0,88.0,90.0,11.41
vaini,4032243.0,-21.2,-175.2,86.0,74.0,40.0,12.75
kailua,5847486.0,21.4,-157.74,71.6,93.0,90.0,17.22
bluff,2206939.0,-46.6,168.33,59.0,64.0,50.0,15.01
mataura,6201424.0,-46.19,168.86,59.0,64.0,5.0,15.01
pevek,2122090.0,69.7,170.31,-32.62,98.0,10.0,4.52
ushuaia,3833367.0,-54.8,-68.3,51.8,71.0,36.0,13.87
kulhudhuffushi,1337613.0,6.62,73.07,81.25,67.0,67.0,5.37
nikolskoye,546105.0,59.7,30.79,23.0,67.0,40.0,15.66
oktyabrskoye,515805.0,43.06,44.74,39.87,63.0,0.0,3.67
rikitea,4030556.0,-23.12,-134.97,79.66,78.0,5.0,16.17
balikpapan,1650527.0,-1.27,116.83,78.8,100.0,75.0,9.17
bayan,2038421.0,46.08,127.4,-9.96,98.0,94.0,4.76
ginir,336454.0,7.13,40.7,60.48,58.0,65.0,4.5
zhezkazgan,1516589.0,47.8,67.71,14.79,95.0,100.0,9.08
areosa,2742765.0,41.72,-8.86,57.99,81.0,90.0,9.17
kodiak,5866583.0,57.79,-152.41,37.4,69.0,90.0,9.17
constitucion,3893726.0,-35.33,-72.42,54.25,75.0,0.0,11.01
shakiso,328716.0,5.75,38.92,62.76,54.0,91.0,4.14
upernavik,3418910.0,72.79,-56.15,-19.93,94.0,100.0,3.49
wamba,2319257.0,8.93,8.6,71.64,21.0,9.0,6.26
port macquarie,2152659.0,-31.43,152.92,78.01,100.0,90.0,8.05
fuzhou,1810821.0,26.06,119.31,51.8,87.0,90.0,2.24
santa marta,3668605.0,11.24,-74.2,65.57,78.0,99.0,4.63
hermanus,3366880.0,-34.42,19.23,66.99,88.0,100.0,8.01
lorengau,2092164.0,-2.02,147.27,83.5,76.0,100.0,11.5
chau doc,1585660.0,10.7,105.12,68.58,87.0,69.0,2.01
busselton,2075265.0,-33.65,115.33,73.99,53.0,94.0,6.4
saint-philippe,935215.0,-21.36,55.77,77.0,69.0,3.0,6.93
lebu,3883457.0,-37.62,-73.65,54.36,71.0,0.0,8.61
kapaa,5848280.0,22.08,-159.32,75.2,60.0,40.0,21.92
georgetown,1735106.0,5.41,100.34,78.8,94.0,20.0,3.36
broome,5110365.0,42.25,-75.83,37.0,98.0,90.0,11.41
koplik,3185133.0,42.21,19.44,42.8,27.0,28.0,8.05
atambua,1651103.0,-9.11,124.89,82.83,69.0,95.0,0.6
bambous virieux,1106677.0,-20.34,57.76,78.8,78.0,20.0,6.93
cabo san lucas,3985710.0,22.89,-109.91,69.01,55.0,75.0,8.05
necochea,3430443.0,-38.55,-58.74,69.01,93.0,39.0,3.0
alice,4670234.0,27.75,-98.07,68.0,14.0,1.0,10.29
port alfred,964432.0,-33.59,26.89,69.01,80.0,100.0,4.0
lavrentiya,4031637.0,65.58,-171.0,-25.06,89.0,0.0,6.08
vangaindrano,1054329.0,-23.35,47.6,71.11,95.0,100.0,3.04
cape town,3369157.0,-33.93,18.42,66.99,77.0,20.0,13.87
marivan,97572.0,35.52,46.18,34.56,63.0,0.0,6.87
zhangjiakou,2033196.0,40.81,114.88,9.57,69.0,0.0,5.82
jamestown,5122534.0,42.1,-79.24,35.6,92.0,90.0,5.82
bredasdorp,1015776.0,-34.53,20.04,66.2,68.0,90.0,12.75
manta,3654410.0,-0.95,-80.73,86.0,66.0,40.0,9.17
sturgis,5011428.0,41.8,-85.42,26.6,86.0,90.0,8.05
bengkulu,1649150.0,-3.8,102.27,74.61,90.0,76.0,3.78
bilma,2446796.0,18.69,12.92,60.91,17.0,11.0,4.88
yellowknife,6185377.0,62.46,-114.35,-4.0,76.0,40.0,4.7
comodoro rivadavia,3860443.0,-45.87,-67.5,57.2,87.0,75.0,13.87
tuatapere,2180815.0,-46.13,167.68,59.0,64.0,4.0,15.01
quatre cocos,1106643.0,-20.21,57.76,78.8,78.0,20.0,6.93
sete,2974733.0,43.4,3.7,53.6,87.0,99.0,4.7
namibe,3347019.0,-15.2,12.15,75.54,84.0,100.0,7.38
xining,1788852.0,36.62,101.77,15.12,48.0,0.0,4.61
albany,5106841.0,42.6,-73.97,34.0,97.0,90.0,4.7
tarabuco,3903391.0,-19.17,-64.92,55.4,87.0,75.0,4.12
codrington,2171099.0,-38.27,141.97,63.97,94.0,100.0,18.39
varkaus,632371.0,62.33,27.87,15.01,91.0,0.0,1.99
atuona,4020109.0,-9.8,-139.03,82.27,74.0,12.0,21.12
san cristobal,3628473.0,7.77,-72.22,86.0,42.0,100.0,5.82
new norfolk,2155415.0,-42.78,147.06,64.99,72.0,90.0,9.17
punta arenas,3874787.0,-53.15,-70.92,55.4,66.0,72.0,14.99
san patricio,3985168.0,19.22,-104.7,78.8,74.0,75.0,13.38
phangnga,1151464.0,8.45,98.53,77.0,78.0,20.0,3.36
nome,5870133.0,64.5,-165.41,-17.0,68.0,1.0,3.36
burgeo,5911440.0,47.62,-57.62,24.96,90.0,100.0,16.64
dolzhanskaya,565456.0,46.63,37.8,33.58,92.0,99.0,10.58
petauke,899825.0,-14.24,31.33,66.7,98.0,100.0,3.71
sisophon,1822207.0,13.59,102.97,70.32,90.0,79.0,5.28
khatanga,2022572.0,71.97,102.5,-8.27,89.0,76.0,9.91
gamba,2400547.0,-2.65,10.0,79.38,85.0,100.0,6.69
dunedin,2191562.0,-45.87,170.5,53.02,70.0,0.0,10.09
los llanos de aridane,2514651.0,28.66,-17.92,66.2,72.0,20.0,6.93
cockburn town,3576994.0,21.46,-71.14,79.02,81.0,0.0,23.76
guerrero negro,4021858.0,27.98,-114.06,63.05,38.0,0.0,11.59
hervey bay,2146219.0,-25.3,152.85,84.99,83.0,40.0,9.17
la ronge,6050066.0,55.1,-105.28,5.0,54.0,90.0,5.82
leningradskiy,2123814.0,69.38,178.42,-25.51,93.0,100.0,14.63
zyryanka,2119283.0,65.75,150.85,-30.84,98.0,100.0,3.29
torbay,6167817.0,47.67,-52.73,27.0,73.0,90.0,9.17
nizhneudinsk,1497549.0,54.91,99.03,10.51,82.0,27.0,3.8
flinders,6255012.0,-34.58,150.86,69.01,100.0,75.0,8.05
hasaki,2112802.0,35.73,140.83,28.4,63.0,75.0,5.82
jiuquan,1279945.0,39.74,98.52,17.15,35.0,0.0,1.81
hilo,5855927.0,19.73,-155.09,77.0,69.0,90.0,11.41
lompoc,5367788.0,34.64,-120.46,64.99,59.0,1.0,13.87
beyneu,610298.0,45.32,55.2,42.28,70.0,67.0,9.42
fortuna,5563839.0,40.6,-124.16,60.01,87.0,90.0,8.05
constantine,2501152.0,36.37,6.61,35.6,74.0,8.0,8.05
nanortalik,3421765.0,60.14,-45.24,28.9,62.0,100.0,14.65
dikson,1507390.0,73.51,80.55,20.39,90.0,100.0,11.77
rockville,4367175.0,39.08,-77.15,44.6,93.0,90.0,4.38
konstantinovka,2021799.0,49.62,127.98,-12.37,90.0,25.0,3.22
mahebourg,934322.0,-20.41,57.7,78.8,78.0,20.0,6.93
sosenskiy,490437.0,54.06,35.96,12.2,78.0,40.0,6.71
qaanaaq,3831208.0,77.48,-69.36,-22.05,50.0,0.0,5.37
lagunas,3695844.0,-5.23,-75.68,78.24,80.0,93.0,2.8
cape canaveral,4149959.0,28.41,-80.6,82.4,69.0,40.0,17.22
teterow,2823398.0,53.78,12.57,42.8,93.0,75.0,9.17
gimli,5961417.0,50.63,-96.99,1.0,71.0,15.0,8.01
oswego,5130076.0,43.45,-76.15,33.8,92.0,90.0,9.17
banda aceh,1215502.0,5.56,95.32,73.38,90.0,99.0,4.25
brae,2654970.0,60.4,-1.35,44.6,93.0,100.0,6.93
vao,2137773.0,-22.67,167.48,79.83,80.0,7.0,18.45
klaksvik,2618795.0,62.23,-6.59,44.6,100.0,100.0,16.11
qaqortoq,3420846.0,60.72,-46.03,30.2,30.0,100.0,17.22
tiksi,2015306.0,71.69,128.87,-27.85,90.0,0.0,3.27
halifax,6324729.0,44.65,-63.57,26.01,100.0,90.0,9.17
aklavik,5882953.0,68.22,-135.01,-18.4,68.0,75.0,4.7
edson,5946820.0,53.58,-116.44,35.6,40.0,90.0,10.29
shenjiamen,1795632.0,29.96,122.3,48.56,86.0,100.0,18.5
goure,2444219.0,13.98,10.27,63.7,15.0,50.0,9.86
farafangana,1065158.0,-22.82,47.83,80.33,69.0,99.0,8.93
mozarlandia,3456642.0,-14.74,-50.57,75.4,87.0,67.0,5.17
mercedes,3430708.0,-34.65,-59.43,90.0,77.0,54.0,4.0
lerwick,2644605.0,60.15,-1.15,44.6,93.0,100.0,12.75
ossora,2122389.0,59.24,163.07,0.18,89.0,100.0,20.83
solnechnyy,2016307.0,50.72,136.63,-7.11,95.0,100.0,1.88
severo-kurilsk,2121385.0,50.68,156.12,12.22,76.0,100.0,21.27
vila velha,3445026.0,-20.33,-40.29,79.0,83.0,40.0,4.7
mattru,2409215.0,7.62,-11.83,75.18,93.0,0.0,2.13
port elizabeth,964420.0,-33.92,25.57,64.4,77.0,100.0,6.93
rincon de la victoria,2511852.0,36.72,-4.28,57.2,82.0,75.0,6.93
norman wells,6089245.0,65.28,-126.83,-9.4,76.0,90.0,6.93
kavieng,2094342.0,-2.57,150.8,83.86,74.0,27.0,11.88
mar del plata,3430863.0,-38.0,-57.56,75.2,83.0,40.0,8.05
ulladulla,2145554.0,-35.35,150.47,68.0,100.0,75.0,8.05
krasnyye chetai,541791.0,55.69,46.14,18.91,94.0,100.0,9.86
lasa,3175096.0,46.62,10.7,30.99,67.0,5.0,6.93
kedougou,2250645.0,12.56,-12.17,71.92,11.0,0.0,3.04
victoria,1819729.0,22.29,114.16,64.99,77.0,40.0,11.41
ponta do sol,2264557.0,32.67,-17.1,64.4,72.0,20.0,2.24
padang,1633419.0,-0.95,100.35,69.39,90.0,31.0,6.08
katsuura,2112309.0,35.13,140.3,37.0,47.0,75.0,5.82
knysna,988698.0,-34.04,23.05,60.8,100.0,98.0,13.87
coahuayana,4013679.0,18.73,-103.68,75.2,60.0,90.0,4.68
mount gambier,2156643.0,-37.83,140.77,71.6,78.0,40.0,8.05
anadyr,2127202.0,64.75,177.48,-36.0,65.0,0.0,4.47
cidreira,3466165.0,-30.18,-50.21,77.5,85.0,0.0,25.52
windhoek,3352136.0,-22.56,17.08,71.6,56.0,33.0,8.05
braesti,683921.0,47.15,27.1,37.0,81.0,90.0,14.99
bud,4255151.0,39.45,-86.18,30.2,86.0,90.0,10.29
spassk,1491197.0,52.75,87.75,24.3,97.0,100.0,3.31
kieta,2094027.0,-6.22,155.63,84.22,76.0,52.0,15.5
araouane,2460954.0,18.9,-3.53,69.46,13.0,0.0,7.07
airai,1651810.0,-8.93,125.41,75.63,73.0,97.0,1.95
mezen,527321.0,65.85,44.24,7.16,96.0,88.0,7.7
akdepe,601551.0,42.06,59.38,42.8,75.0,24.0,13.87
ucluelet,6171633.0,48.93,-125.55,45.0,100.0,90.0,3.36
prestea,2295840.0,5.43,-2.14,75.47,83.0,68.0,1.45
russell,4047434.0,32.35,-85.2,63.0,93.0,90.0,9.17
pisco,3932145.0,-13.7,-76.22,72.0,30.0,75.0,5.82
itambacuri,3460817.0,-18.03,-41.69,68.95,94.0,86.0,4.83
san jeronimo,3929611.0,-11.95,-75.28,40.51,95.0,100.0,5.08
kavaratti,1267390.0,10.57,72.64,79.83,71.0,52.0,15.01
acapulco,3533462.0,16.86,-99.89,82.4,69.0,20.0,10.29
ust-karsk,2013942.0,52.7,118.81,-15.07,97.0,81.0,1.59
kamenka,553766.0,51.32,42.77,23.0,89.0,85.0,1.01
galle,1246294.0,6.04,80.22,79.45,83.0,41.0,9.13
la rioja,3336897.0,42.25,-2.5,37.4,86.0,80.0,2.24
labuan,1733782.0,5.28,115.24,78.8,94.0,75.0,11.41
touros,3386213.0,-5.2,-35.46,82.4,74.0,20.0,10.29
bethel,5282297.0,41.37,-73.41,39.0,100.0,90.0,9.17
gushikawa,1863495.0,26.35,127.87,69.8,72.0,75.0,13.87
punta alta,3839982.0,-38.88,-62.07,70.25,91.0,83.0,16.49
murchison,2186377.0,-41.8,172.33,63.46,37.0,0.0,4.81
isangel,2136825.0,-19.55,169.27,89.6,62.0,93.0,10.29
marshfield,5261969.0,44.67,-90.17,30.2,42.0,1.0,2.42
praia da vitoria,3372760.0,38.73,-27.07,62.6,82.0,75.0,32.41
ribeira grande,3372707.0,38.52,-28.7,59.38,93.0,100.0,27.0
shakhtinsk,1519327.0,49.71,72.59,19.4,73.0,100.0,13.42
port hardy,6111862.0,50.7,-127.42,42.8,93.0,75.0,4.7
kununurra,2068110.0,-15.77,128.73,82.4,88.0,30.0,8.05
toamasina,1053384.0,-18.17,49.38,75.2,94.0,75.0,4.7
horasan,745527.0,40.05,42.17,27.77,84.0,97.0,1.52
coquimbo,3893629.0,-29.95,-71.34,64.4,68.0,0.0,11.41
morehead,4301317.0,37.27,-87.18,33.8,95.0,90.0,5.82
vila franca do campo,3372472.0,37.72,-25.43,60.8,77.0,20.0,21.92
owerri,2325330.0,5.48,7.03,80.6,83.0,20.0,3.76
deputatskiy,2028164.0,69.3,139.9,-32.22,100.0,9.0,1.97
kita,2455216.0,13.03,-9.49,71.26,11.0,0.0,6.24
clyde river,5924351.0,70.47,-68.59,-29.2,73.0,1.0,3.36
provideniya,4031574.0,64.38,-173.3,-14.8,62.0,0.0,2.24
grand gaube,934479.0,-20.01,57.66,78.8,78.0,20.0,6.93
kerema,2094144.0,-7.96,145.78,90.37,50.0,24.0,4.29
gloucester,2648404.0,51.87,-2.24,39.0,93.0,1.0,4.05
marsh harbour,3571913.0,26.54,-77.06,76.55,84.0,34.0,22.46
nexo,2616504.0,55.06,15.13,41.0,100.0,0.0,4.7
teguise,2510573.0,29.06,-13.56,64.4,82.0,20.0,3.36
longyearbyen,2729907.0,78.22,15.64,-0.4,77.0,75.0,4.7
sibolga,1213855.0,1.74,98.78,71.69,92.0,97.0,3.71
kahului,5847411.0,20.89,-156.47,75.2,73.0,75.0,13.87
olecko,763291.0,54.03,22.51,25.0,94.0,10.0,6.78
caravelas,3466980.0,-17.71,-39.25,80.44,79.0,100.0,6.85
husavik,2629833.0,66.04,-17.34,41.0,65.0,9.0,39.15
aksu,1529660.0,41.12,80.26,26.78,58.0,32.0,3.67
langnau,2660032.0,46.94,7.79,32.0,92.0,0.0,1.12
korla,1529376.0,41.76,86.15,24.01,89.0,72.0,4.0
surt,2210554.0,31.21,16.59,50.05,70.0,28.0,12.57
san martin,3836992.0,-33.08,-68.47,84.2,39.0,40.0,4.7
san isidro,3929631.0,-12.12,-77.05,77.0,69.0,94.0,8.05
himare,3185377.0,40.1,19.74,44.6,52.0,11.0,3.36
cicero dantas,3466171.0,-10.6,-38.38,73.67,85.0,100.0,10.78
karaton,1630058.0,-6.34,106.1,79.0,94.0,20.0,5.82
khash,1160571.0,28.22,61.22,45.03,50.0,0.0,0.89
charters towers,2171722.0,-20.1,146.27,85.39,59.0,6.0,6.04
potenza,3170027.0,40.64,15.81,26.31,84.0,0.0,6.85
crotone,2524881.0,39.09,17.12,40.87,46.0,0.0,12.91
ugoofaaru,1337619.0,5.67,73.0,81.32,80.0,86.0,11.95
pomabamba,3693468.0,-8.83,-77.47,44.47,92.0,89.0,4.63
mayo,4362001.0,38.89,-76.51,46.0,96.0,90.0,8.05
salinopolis,3389822.0,-0.61,-47.36,79.77,83.0,90.0,17.83
derzhavinsk,1524606.0,51.1,66.32,24.12,94.0,100.0,19.39
xinzhi,1788462.0,36.5,111.7,28.8,73.0,49.0,1.63
palana,2122262.0,59.12,159.97,7.39,76.0,100.0,9.46
alice springs,2077895.0,-23.7,133.88,80.6,21.0,0.0,3.36
komsomolskiy,1513491.0,40.43,71.72,35.6,63.0,0.0,2.24
pangnirtung,6096551.0,66.15,-65.71,-16.6,75.0,75.0,6.93
rairangpur,1265830.0,22.27,86.18,64.08,39.0,92.0,7.29
faya,110690.0,18.39,42.45,57.2,82.0,0.0,4.7
thompson,6165406.0,55.74,-97.86,-13.0,69.0,20.0,3.36
ponta delgada,3372783.0,37.73,-25.67,60.8,77.0,20.0,21.92
tuktoyaktuk,6170031.0,69.45,-133.04,-18.4,75.0,90.0,8.05
kalmunai,1242110.0,7.42,81.82,79.18,68.0,20.0,10.4
ancud,3899695.0,-41.87,-73.82,62.6,45.0,75.0,9.17
kayerkan,1497337.0,69.35,87.76,23.0,92.0,40.0,31.32
shingu,1847947.0,33.73,135.98,37.4,44.0,75.0,3.36
naze,1855540.0,28.37,129.48,64.4,72.0,75.0,12.75
ilulissat,3423146.0,69.22,-51.1,12.2,85.0,75.0,9.17
biak,1637001.0,-0.91,122.88,82.17,74.0,24.0,4.47
avarua,4035715.0,-21.21,-159.78,84.2,74.0,4.0,14.99
laguna,5364271.0,38.42,-121.42,66.99,41.0,1.0,2.21
dir,1179757.0,35.21,71.88,31.82,33.0,0.0,6.15
sao joao da barra,3448903.0,-21.64,-41.05,78.8,83.0,100.0,8.1
ginda,1253628.0,30.69,78.49,35.42,76.0,75.0,4.27
kangaatsiaq,3422683.0,68.31,-53.46,7.07,92.0,100.0,18.79
seoul,1835848.0,37.57,126.98,24.8,62.0,90.0,1.12
dinguiraye,2421903.0,11.3,-10.72,68.47,13.0,0.0,2.33
ninh binh,1571968.0,20.25,105.97,70.2,89.0,82.0,8.61
illela,2337680.0,13.73,5.3,67.08,13.0,0.0,11.54
port blair,1259385.0,11.67,92.75,78.39,71.0,45.0,11.63
mitchell,5229794.0,43.71,-98.03,33.8,80.0,90.0,5.82
kyzyl-suu,1527497.0,42.34,78.0,23.23,54.0,5.0,6.44
port-gentil,2396518.0,-0.72,8.78,82.4,88.0,40.0,4.7
belyy yar,1510377.0,53.6,91.39,12.2,92.0,92.0,4.47
bani,3512067.0,18.28,-70.33,81.0,83.0,20.0,3.85
sambava,1056899.0,-14.27,50.17,69.64,95.0,67.0,2.39
redding,5570160.0,40.59,-122.39,73.4,39.0,1.0,1.41
cairns,2172797.0,-16.92,145.77,91.0,70.0,40.0,11.41
havre-saint-pierre,5972291.0,50.23,-63.6,17.6,85.0,90.0,12.75
saint anthony,5044290.0,45.02,-93.22,30.2,50.0,1.0,4.7
raudeberg,3146487.0,61.99,5.14,46.99,100.0,100.0,10.29
jiangmen,1806299.0,22.58,113.08,62.01,90.0,99.0,3.78
camana,3945985.0,-16.62,-72.71,67.51,75.0,3.0,5.79
snezhnogorsk,795243.0,69.19,33.25,17.6,78.0,74.0,11.18
castro,3466704.0,-24.79,-50.01,64.98,98.0,0.0,6.04
la palma,5364022.0,33.85,-118.05,66.99,31.0,1.0,6.93
basco,1726449.0,20.45,121.97,76.8,82.0,29.0,14.61
saravan,174726.0,39.72,45.65,42.8,56.0,40.0,11.41
geraldton,2070998.0,-28.77,114.6,71.6,83.0,79.0,6.93
rafaela,3839479.0,-31.25,-61.49,80.01,75.0,36.0,5.95
papetoai,4033910.0,-17.5,-149.87,86.0,62.0,75.0,5.82
labis,1732877.0,2.38,103.02,73.44,93.0,83.0,3.74
zinder,2437798.0,13.81,8.99,63.14,15.0,0.0,10.65
krasnoye,704277.0,49.91,24.61,33.8,97.0,90.0,13.42
mancio lima,3663516.0,-7.61,-72.9,75.2,100.0,95.0,1.52
sonari,1255788.0,27.07,95.03,54.27,86.0,7.0,1.88
vardo,777019.0,70.37,31.11,15.8,72.0,20.0,8.05
taksimo,2015701.0,56.34,114.88,-10.46,99.0,90.0,0.69
tura,1254046.0,25.52,90.22,53.22,52.0,0.0,1.48
inirida,3671450.0,3.87,-67.92,80.37,67.0,93.0,2.73
tashigang,1252423.0,27.33,91.55,27.36,81.0,32.0,4.27
namatanai,2090021.0,-3.67,152.43,83.43,73.0,87.0,9.31
bonavista,5905393.0,48.65,-53.11,26.01,80.0,100.0,11.99
tupik,2014836.0,54.43,119.93,-24.61,96.0,24.0,1.21
marfino,529368.0,55.7,37.38,19.0,78.0,25.0,8.95
souillac,933995.0,-20.52,57.52,78.8,78.0,20.0,6.93
bemidji,5017822.0,47.47,-94.88,23.0,92.0,75.0,3.36
rocha,3440777.0,-34.48,-54.33,74.16,89.0,42.0,11.43
plouzane,2986626.0,48.38,-4.62,42.8,60.0,2.0,13.87
chokurdakh,2126123.0,70.63,147.92,-32.78,99.0,0.0,1.63
opuwo,3354077.0,-18.06,13.84,69.94,61.0,97.0,13.42
kathmandu,1283240.0,27.72,85.32,44.6,87.0,75.0,2.24
asau,686090.0,46.43,26.4,37.0,65.0,75.0,4.7
alcaniz,3130606.0,41.05,-0.13,41.0,86.0,45.0,1.99
sitka,5557293.0,57.05,-135.33,39.2,100.0,90.0,5.82
ewa beach,5855051.0,21.32,-158.01,71.6,100.0,90.0,12.75
adrar,2381972.0,20.5,-10.07,69.03,9.0,23.0,8.01
vestmannaeyjar,3412093.0,63.44,-20.27,44.17,85.0,61.0,27.22
sao joaquim do monte,3388567.0,-8.43,-35.8,72.46,85.0,67.0,6.85
birin,1283334.0,26.89,88.07,36.14,80.0,0.0,3.91
makueni,188080.0,-1.8,37.62,62.17,90.0,3.0,3.74
fairbanks,5861897.0,64.84,-147.72,21.2,85.0,90.0,2.82
boyolangu,1648082.0,-8.12,111.89,77.92,87.0,91.0,1.3
poum,2138555.0,-20.23,164.02,81.81,80.0,98.0,27.89
coihaique,3894426.0,-45.58,-72.07,50.0,93.0,90.0,3.24
smithers,6149996.0,54.78,-127.17,33.8,80.0,75.0,3.36
stephenville,4734350.0,32.22,-98.2,48.2,28.0,1.0,10.29
zyryanskoye,1484892.0,56.83,86.63,20.08,86.0,91.0,13.02
wewak,2083537.0,-3.55,143.63,84.16,62.0,37.0,2.98
harper,2276492.0,4.38,-7.72,76.64,85.0,16.0,2.57
awjilah,88533.0,29.11,21.29,51.3,61.0,0.0,11.61
natal,3394023.0,-5.79,-35.21,82.4,74.0,20.0,8.05
filadelfia,4560349.0,39.95,-75.16,45.0,93.0,90.0,3.36
hamilton,4513583.0,39.18,-84.53,33.01,92.0,90.0,6.93
samarai,2132606.0,-10.62,150.67,85.26,62.0,100.0,1.77
nioro,2412408.0,13.35,-15.75,76.1,8.0,13.0,9.01
fort-shevchenko,609906.0,44.51,50.26,41.95,79.0,13.0,8.55
labytnangi,1500933.0,66.66,66.42,-6.95,83.0,95.0,10.36
homer,5864145.0,59.64,-151.55,35.6,74.0,90.0,3.36
niort,2990354.0,46.33,-0.33,39.2,88.0,0.0,5.82
murgab,1218612.0,37.5,61.97,44.6,70.0,0.0,9.17
amahai,1651591.0,-3.33,128.92,82.69,74.0,95.0,6.98
portland,5746545.0,45.52,-122.68,57.2,93.0,90.0,6.93
uralets,478849.0,57.66,59.65,-1.19,99.0,100.0,6.38
nizhniy kuranakh,2019135.0,58.84,125.49,-29.58,99.0,51.0,2.21
killam,5991888.0,52.78,-111.85,23.49,88.0,73.0,6.71
bubaque,2374583.0,11.28,-15.83,78.75,64.0,1.0,15.5
assiniboia,5887798.0,49.63,-105.98,18.01,90.0,100.0,3.33
pabna,1336143.0,24.0,89.25,56.44,51.0,8.0,4.16
barcelos,2742416.0,41.54,-8.62,55.4,82.0,75.0,9.17
vera cruz,3445307.0,-12.63,-41.03,68.86,93.0,100.0,5.1
mount isa,2065594.0,-20.73,139.5,86.0,58.0,40.0,6.93
manggar,1636426.0,-2.88,108.27,81.1,84.0,100.0,22.57
sao miguel do araguaia,3448455.0,-13.28,-50.16,73.85,93.0,100.0,1.92
broken hill,2173911.0,-31.95,141.43,75.2,57.0,40.0,9.17
hit,95788.0,33.64,42.83,56.79,44.0,0.0,6.73
srbac,3190172.0,45.1,17.52,36.0,74.0,27.0,2.24
kushima,1895695.0,31.46,131.23,44.6,81.0,75.0,9.17
kloulklubed,7671223.0,7.04,134.26,80.6,78.0,75.0,11.41
takoradi,2294915.0,4.88,-1.76,77.81,77.0,69.0,3.58
jian,1806445.0,27.12,114.98,47.03,93.0,99.0,3.83
mandalgovi,2030065.0,45.76,106.27,6.03,71.0,0.0,7.52
maningrida,2067089.0,-12.07,134.27,83.88,78.0,100.0,8.7
jagdalpur,1269578.0,19.07,82.03,64.38,81.0,78.0,1.19
champerico,3598787.0,14.3,-91.92,89.6,46.0,20.0,13.87
bumba,217745.0,2.18,22.47,75.06,60.0,40.0,2.06
pokhara,1282898.0,28.23,83.98,44.8,68.0,0.0,2.95
tabou,2281120.0,4.42,-7.35,76.64,85.0,16.0,2.57
parsons,4277011.0,37.34,-95.26,39.2,59.0,1.0,5.82
cherskiy,2126199.0,68.75,161.3,-39.39,94.0,2.0,0.67
mount pleasant,4588165.0,32.79,-79.86,72.0,94.0,100.0,18.34
griffith,4920986.0,41.53,-87.42,30.2,79.0,90.0,5.82
walvis bay,3359638.0,-22.96,14.51,63.0,88.0,0.0,6.93
joensuu,655823.0,62.58,29.75,17.6,78.0,33.0,8.05
fastiv,709248.0,50.08,29.92,25.0,58.0,75.0,17.9
saint-francois,2980080.0,46.42,3.91,35.01,86.0,0.0,2.24
giuvarasti,677096.0,43.8,24.7,28.4,74.0,75.0,11.41
ahuimanu,5856516.0,21.44,-157.84,71.6,93.0,90.0,17.22
salalah,286621.0,17.02,54.09,69.8,68.0,20.0,2.24
atlantic city,4500546.0,39.36,-74.42,52.0,93.0,90.0,10.29
selizharovo,497661.0,56.85,33.45,18.09,83.0,91.0,16.22
manacapuru,3663529.0,-3.3,-60.62,80.6,83.0,20.0,3.36
ferme-neuve,5952330.0,46.7,-75.45,20.03,88.0,100.0,6.98
margate,2643044.0,51.38,1.39,44.01,93.0,0.0,8.05
jumla,1283285.0,29.27,82.18,21.88,38.0,26.0,4.65
lakes entrance,2160735.0,-37.88,147.98,79.0,60.0,4.0,4.07
chuy,3443061.0,-33.7,-53.46,74.93,90.0,40.0,11.52
tchibanga,2396253.0,-2.85,11.03,75.45,92.0,100.0,1.77
la asuncion,3480908.0,11.03,-63.86,69.8,100.0,21.0,21.92
mackay,2159220.0,-21.15,149.2,87.01,66.0,40.0,5.82
ketchikan,5554428.0,55.34,-131.65,42.8,75.0,75.0,11.41
pullman,5807540.0,46.73,-117.18,42.01,93.0,90.0,3.36
dalvik,2632287.0,65.97,-18.53,41.0,65.0,2.0,39.15
port angeles,5807212.0,48.12,-123.43,46.0,100.0,75.0,5.37
dicabisagan,1715015.0,17.08,122.42,75.11,87.0,80.0,4.14
mayumba,2399001.0,-3.43,10.66,83.52,72.0,100.0,9.24
prince albert,6113335.0,53.2,-105.77,-0.4,70.0,75.0,4.7
te anau,2181625.0,-45.42,167.72,56.59,58.0,1.0,5.64
cabra,2520645.0,37.47,-4.44,48.99,87.0,100.0,3.87
rivne,695594.0,50.62,26.23,27.32,84.0,79.0,11.3
esna,355449.0,25.29,32.55,53.6,71.0,0.0,0.72
sao filipe,3374210.0,14.9,-24.5,71.44,61.0,17.0,15.21
hilton head island,4581833.0,32.22,-80.75,68.0,100.0,75.0,16.11
boddam,2655288.0,57.47,-1.78,37.99,85.0,33.0,2.24
arraial do cabo,3471451.0,-22.97,-42.03,76.5,83.0,100.0,12.95
belmonte,3470137.0,-15.86,-38.88,80.6,78.0,100.0,6.93
klyuchi,1503153.0,52.27,79.17,22.21,93.0,100.0,13.29
college,5859699.0,64.86,-147.8,21.99,85.0,90.0,2.3
ostrovnoy,556268.0,68.05,39.51,13.3,76.0,75.0,6.98
ahipara,2194098.0,-35.17,173.17,86.0,55.0,95.0,4.0
juneau,5554072.0,58.3,-134.42,39.99,86.0,90.0,9.17
along,1278969.0,28.17,94.77,45.68,86.0,50.0,4.21
lamu,189741.0,-2.27,40.9,80.92,75.0,80.0,10.25
viedma,3832899.0,-40.81,-63.0,63.95,84.0,100.0,16.4
kisangani,212730.0,0.52,25.2,72.25,78.0,6.0,1.16
iqaluit,5983720.0,63.75,-68.51,-22.0,67.0,75.0,26.4
saskylakh,2017155.0,71.92,114.08,-21.26,92.0,66.0,17.96
darwen,2651495.0,53.7,-2.46,39.99,84.0,0.0,3.36
amla,1278775.0,21.93,78.12,60.78,85.0,0.0,4.56
nioki,2311968.0,-2.72,17.68,75.81,68.0,64.0,0.83
khandyga,2022773.0,62.67,135.6,-45.98,94.0,56.0,1.57
katangli,2122783.0,51.71,143.23,-9.76,88.0,28.0,6.98
zaraza,3625066.0,9.35,-65.32,78.04,59.0,26.0,7.47
kaitangata,2208248.0,-46.28,169.85,62.01,51.0,60.0,10.0
labrea,3663684.0,-7.26,-64.8,78.93,80.0,91.0,2.75
mali,2417886.0,12.08,-12.3,70.81,11.0,8.0,5.23
luderitz,3355672.0,-26.65,15.16,63.34,86.0,0.0,25.03
seydi,1218420.0,39.48,62.91,47.57,62.0,0.0,21.07
usinsk,863061.0,65.99,57.53,-10.32,98.0,81.0,5.44
saint george,5546220.0,37.1,-113.58,55.0,37.0,1.0,12.75
ust-barguzin,2013986.0,53.45,108.98,-2.27,95.0,77.0,5.37
kirovskiy,2022064.0,45.09,133.51,1.89,86.0,99.0,2.28
herat,1140025.0,34.5,62.0,39.2,80.0,0.0,2.24
lockhart,4162539.0,28.62,-81.44,82.4,54.0,75.0,18.34
north bend,5742974.0,43.41,-124.22,55.0,93.0,90.0,5.82
carmen,3530599.0,18.63,-91.83,80.6,78.0,40.0,6.93
ambilobe,1082243.0,-13.2,49.05,74.12,90.0,67.0,3.49
bayangol,2027002.0,50.7,103.47,-6.25,94.0,0.0,3.13
itupiranga,3397851.0,-5.13,-49.33,78.8,94.0,20.0,3.53
chumikan,2025256.0,54.72,135.31,-14.8,91.0,100.0,3.18
the valley,3573374.0,18.22,-63.06,80.6,74.0,20.0,12.75
avera,4231997.0,33.19,-82.53,64.4,88.0,90.0,3.36
luanda,2240449.0,-8.84,13.23,82.4,78.0,75.0,4.7
kuytun,2021093.0,54.34,101.5,0.91,96.0,43.0,5.7
novo aripuana,3663142.0,-5.12,-60.38,75.07,97.0,84.0,2.1
saint-augustin,6137462.0,51.23,-58.65,17.01,81.0,100.0,17.76
bintulu,1737486.0,3.17,113.03,75.2,94.0,75.0,1.12
muravlenko,1540711.0,63.79,74.52,1.44,94.0,91.0,12.08
prince rupert,6113406.0,54.32,-130.32,42.8,87.0,90.0,4.7
virginia beach,4791259.0,36.85,-75.98,64.0,100.0,90.0,5.82
nabire,1634614.0,-3.37,135.48,74.16,98.0,100.0,1.66
hofn,2630299.0,64.25,-15.21,43.02,92.0,89.0,6.93
nantucket,4944903.0,41.28,-70.1,43.0,100.0,90.0,5.82
marathon,5261790.0,44.9,-89.77,30.2,45.0,1.0,3.36
imeni babushkina,556858.0,59.76,43.13,13.98,93.0,99.0,11.27
yankton,5233053.0,42.87,-97.4,35.6,64.0,20.0,5.82
muroto,1856392.0,33.28,134.15,39.2,64.0,75.0,6.93
swift current,6160603.0,50.28,-107.8,19.4,92.0,90.0,4.7
grosse pointe park,4994868.0,42.38,-82.94,27.0,92.0,90.0,9.17
khani,610864.0,41.96,42.96,51.8,76.0,52.0,4.7
san francisco menendez,3583716.0,13.84,-90.02,86.0,40.0,0.0,5.73
wentzville,4414001.0,38.81,-90.85,32.0,91.0,90.0,5.82
hambantota,1244926.0,6.12,81.12,77.34,83.0,74.0,18.54
manga,2358100.0,11.66,-1.07,70.34,13.0,0.0,9.69
ozark,4402245.0,37.02,-93.21,30.2,68.0,90.0,5.82
kapustin yar,552999.0,48.58,45.74,30.54,95.0,100.0,9.22
port hedland,2063042.0,-20.32,118.57,84.2,74.0,100.0,17.22
cururupu,3401148.0,-1.83,-44.87,74.21,98.0,100.0,2.3
kaeo,2189343.0,-35.1,173.78,86.0,55.0,74.0,4.0
sorong,1626542.0,-0.88,131.25,73.08,98.0,100.0,3.8
san matias,3444105.0,-16.37,-58.4,80.8,74.0,93.0,7.74
byron bay,2172880.0,-28.65,153.62,73.4,100.0,98.0,6.93
abalak,1512223.0,58.13,68.59,10.49,95.0,100.0,6.6
tonota,933000.0,-21.48,27.48,69.67,82.0,30.0,4.63
rudbar,1128239.0,30.15,62.6,54.19,36.0,0.0,7.83
abu samrah,172515.0,35.3,37.18,52.2,85.0,31.0,14.18
bansang,2413866.0,13.43,-14.65,76.23,9.0,35.0,6.89
rincon,4218882.0,32.3,-81.24,73.4,88.0,90.0,14.99
auch,3036281.0,43.65,0.58,46.99,87.0,90.0,4.7
jalu,86049.0,29.03,21.55,51.3,61.0,0.0,11.61
half moon bay,5354943.0,37.46,-122.43,71.01,51.0,1.0,3.36
el campo,4688506.0,29.2,-96.27,57.0,25.0,1.0,14.99
tasiilaq,3424607.0,65.61,-37.64,30.2,80.0,100.0,11.41
talnakh,1490256.0,69.49,88.4,23.0,92.0,40.0,31.32
aykhal,2027296.0,66.0,111.5,-4.0,83.0,90.0,6.71
paamiut,3421193.0,61.99,-49.67,21.06,92.0,100.0,9.53
pacific grove,5380437.0,36.62,-121.92,71.01,71.0,1.0,5.82
myitkyina,1307741.0,25.38,97.4,51.82,76.0,0.0,4.18
egvekinot,4031742.0,66.32,-179.17,-23.01,88.0,0.0,9.51
jatai,3460064.0,-17.88,-51.71,72.27,89.0,100.0,0.78
antibes,3037456.0,43.56,7.13,46.0,65.0,32.0,13.87
carballo,3126369.0,43.21,-8.69,55.99,87.0,40.0,1.12
pimentel,3693584.0,-6.84,-79.93,66.2,29.0,94.0,23.04
shitanjing,1794971.0,39.23,106.34,23.5,41.0,0.0,1.61
kamina,214614.0,-8.74,24.99,64.54,96.0,82.0,2.84
scarborough,2638419.0,54.28,-0.4,37.0,100.0,0.0,2.24
malindi,187968.0,-3.22,40.12,74.89,89.0,9.0,4.27
balasheyka,579468.0,53.28,48.09,8.58,93.0,100.0,7.7
dumas,5520552.0,35.87,-101.97,50.0,19.0,1.0,6.93
tessalit,2449893.0,20.2,1.01,66.31,15.0,0.0,8.86
lata,2738381.0,40.16,-8.33,57.99,87.0,75.0,4.7
veraval,1253237.0,20.9,70.37,59.13,34.0,0.0,10.89
castlebar,2965654.0,53.85,-9.3,42.01,87.0,98.0,7.85
havelock,4470244.0,34.88,-76.9,73.4,83.0,90.0,24.16
muskegon,5003136.0,43.3,-86.13,28.4,92.0,90.0,6.93
tautira,4033557.0,-17.73,-149.15,86.0,62.0,75.0,5.82
date,2130421.0,42.47,140.87,22.48,75.0,95.0,13.2
chunhuhub,3530691.0,19.55,-88.68,82.15,70.0,0.0,5.12
inhambane,1045114.0,-23.86,35.38,80.2,84.0,77.0,10.83
olafsvik,3414079.0,64.89,-23.71,40.19,89.0,98.0,19.42
klaeng,1609610.0,12.78,101.65,79.0,10.0,65.0,2.17
arusha,161325.0,-3.37,36.68,62.6,82.0,20.0,0.47
supe,3928274.0,-10.8,-77.73,72.27,72.0,28.0,5.91
brewster,5110092.0,41.4,-73.62,39.0,100.0,90.0,9.17
rizhao,1797132.0,35.43,119.46,33.15,85.0,100.0,2.39
porto novo,2392087.0,6.5,2.6,82.4,88.0,20.0,4.7
shiraz,115019.0,29.6,52.54,35.6,24.0,0.0,1.68
san jose,5392171.0,37.34,-121.89,71.01,76.0,1.0,11.41
rawson,3839307.0,-43.3,-65.1,60.37,76.0,51.0,15.68
tabora,149658.0,-5.02,32.8,68.0,100.0,75.0,1.21
krasnoselkup,1502073.0,65.7,82.47,12.07,92.0,100.0,12.82
keti bandar,1174451.0,24.14,67.45,65.75,68.0,0.0,6.26
keskin,308024.0,39.67,33.61,34.0,91.0,100.0,3.4
qianan,2035410.0,44.99,124.06,-7.8,86.0,10.0,4.29
belaya gora,2126785.0,68.53,146.42,-34.62,100.0,2.0,1.19
krasnomayskiy,542298.0,57.62,34.41,15.3,86.0,83.0,12.84
road town,3577430.0,18.42,-64.62,80.6,69.0,1.0,12.75
alofi,4036284.0,-19.06,-169.92,84.2,79.0,75.0,10.29
gat,293842.0,31.61,34.76,57.2,82.0,75.0,5.82
cape coast,2302357.0,5.11,-1.25,81.82,81.0,77.0,9.13
oistins,3373652.0,13.07,-59.53,78.8,74.0,40.0,20.8
vostok,2013279.0,46.49,135.88,-4.85,94.0,100.0,3.76
athabasca,5887916.0,54.72,-113.29,26.76,87.0,76.0,6.46
schaffhausen,2658761.0,47.7,8.63,32.0,92.0,0.0,1.12
alyangula,2079582.0,-13.85,136.42,86.0,79.0,88.0,1.12
kokopo,2093685.0,-4.35,152.26,83.86,76.0,76.0,14.85
baikunthpur,1277769.0,23.25,82.55,55.54,61.0,48.0,6.71
ivanteyevka,555111.0,55.97,37.92,19.0,78.0,54.0,11.18
itoman,1861280.0,26.12,127.67,69.8,68.0,75.0,13.87
beringovskiy,2126710.0,63.05,179.32,-23.1,96.0,91.0,17.9
muhos,645767.0,64.75,26.17,14.0,85.0,23.0,6.93
karibib,3356332.0,-21.93,15.83,69.73,60.0,1.0,5.17
mae hong son,1152222.0,19.3,97.97,53.46,61.0,0.0,1.99
houma,4328010.0,29.6,-90.72,51.01,70.0,75.0,18.34
yeniseysk,1485997.0,58.45,92.17,28.72,83.0,100.0,9.91
gander,5959335.0,48.97,-54.59,21.2,73.0,90.0,14.99
karratha,6620339.0,-20.74,116.85,84.45,76.0,100.0,22.35
bela,1276574.0,25.93,81.98,49.75,71.0,0.0,3.69
gouyave,3580279.0,12.16,-61.73,78.8,83.0,40.0,13.87
kuching,1735634.0,1.55,110.33,77.0,100.0,75.0,2.93
yarmouth,4956335.0,41.71,-70.23,43.0,100.0,90.0,5.82
matara,1235846.0,5.95,80.54,72.73,92.0,50.0,7.52
moundsville,4815462.0,39.92,-80.74,45.0,100.0,90.0,8.05
slave lake,6149374.0,55.28,-114.77,32.0,86.0,75.0,13.87
khovu-aksy,1503527.0,51.13,93.6,0.88,81.0,86.0,9.19
general roca,3855065.0,-39.03,-67.58,71.6,56.0,20.0,8.05
cabedelo,3404558.0,-6.98,-34.83,82.4,78.0,40.0,9.17
butterworth,1735076.0,5.4,100.36,78.8,94.0,20.0,3.36
trairi,3386177.0,-3.28,-39.27,73.81,93.0,73.0,1.99
maragogi,3395458.0,-9.01,-35.22,81.88,76.0,38.0,15.14
marzuq,72181.0,14.4,46.47,64.06,61.0,100.0,4.72
sarangani,1687186.0,5.4,125.46,81.75,82.0,100.0,17.29
newport,2641598.0,51.59,-3.0,41.0,100.0,0.0,13.87
mogadishu,53654.0,2.04,45.34,77.97,81.0,82.0,21.56
nadvoitsy,523662.0,63.87,34.32,6.51,95.0,86.0,6.35
katherine,2068655.0,-14.47,132.27,82.4,74.0,99.0,4.7
svetlyy,485660.0,54.67,20.13,28.4,79.0,20.0,6.71
nyurba,2018735.0,63.28,118.33,-25.56,98.0,36.0,3.69
vaitape,4033077.0,-16.52,-151.75,82.49,73.0,99.0,15.79
chodavaram,1274020.0,17.83,82.95,73.4,88.0,40.0,5.82
sestri levante,3166595.0,44.27,9.4,48.0,36.0,0.0,1.12
iralaya,3608828.0,15.0,-83.23,80.35,79.0,0.0,16.08
pangody,1495626.0,65.85,74.49,-4.63,98.0,99.0,13.06
kiruna,605155.0,67.86,20.23,17.6,72.0,99.0,9.17
englewood,5421250.0,39.65,-104.99,36.0,51.0,75.0,3.36
baglung,1283711.0,28.27,83.59,26.06,33.0,0.0,9.46
bend,5713587.0,44.06,-121.32,53.6,57.0,90.0,19.46
nouadhibou,2377457.0,20.93,-17.03,68.0,56.0,54.0,16.11
mwinilunga,902620.0,-11.74,24.43,62.04,98.0,100.0,4.25
