,Name,ID,Lat,Lng,Max Temp,Humidity,Cloudiness,Wind Speed
0,buraydah,107304.0,26.33,43.98,39.2,93.0,0.0,9.17
1,mataura,6201424.0,-46.19,168.86,77.65,58.0,64.0,0.58
2,aransas pass,4671141.0,27.91,-97.15,66.99,88.0,1.0,11.41
3,barra velha,3470597.0,-26.63,-48.68,72.0,83.0,0.0,6.4
4,fairbanks,5861897.0,64.84,-147.72,-9.0,74.0,1.0,6.04
5,chuy,3443061.0,-33.7,-53.46,65.59,80.0,3.0,5.46
6,rikitea,4030556.0,-23.12,-134.97,79.11,77.0,0.0,10.22
7,busselton,2075265.0,-33.65,115.33,84.0,33.0,97.0,5.23
8,albany,5106841.0,42.6,-73.97,39.99,93.0,90.0,9.17
9,egvekinot,4031742.0,66.32,-179.17,-5.75,89.0,67.0,4.85
11,bluff,2206939.0,-46.6,168.33,66.49,52.0,57.0,8.52
12,lorengau,2092164.0,-2.02,147.27,84.22,71.0,85.0,6.04
14,castro,3466704.0,-24.79,-50.01,61.63,93.0,0.0,2.84
15,clyde river,5924351.0,70.47,-68.59,-27.4,67.0,1.0,10.29
16,rincon,4218882.0,32.3,-81.24,51.8,86.0,1.0,5.55
17,smithers,6149996.0,54.78,-127.17,41.0,65.0,40.0,6.93
18,arraial do cabo,3471451.0,-22.97,-42.03,75.16,82.0,0.0,6.76
19,oranjestad,3577154.0,12.52,-70.03,80.6,74.0,20.0,10.29
20,mar del plata,3430863.0,-38.0,-57.56,66.2,55.0,0.0,11.41
21,isangel,2136825.0,-19.55,169.27,80.6,78.0,75.0,6.93
22,khandbari,1283217.0,27.37,87.2,37.15,77.0,48.0,2.71
24,hofn,2630299.0,64.25,-15.21,38.97,86.0,82.0,16.04
25,gigmoto,1712961.0,13.78,124.39,81.14,81.0,90.0,12.53
26,kodiak,5866583.0,57.79,-152.41,17.6,61.0,90.0,23.04
27,new norfolk,2155415.0,-42.78,147.06,72.0,56.0,75.0,11.41
28,yellowknife,6185377.0,62.46,-114.35,10.4,85.0,90.0,6.93
29,torbay,6167817.0,47.67,-52.73,19.99,78.0,5.0,13.87
30,saskylakh,2017155.0,71.92,114.08,-20.51,93.0,99.0,16.46
31,ushuaia,3833367.0,-54.8,-68.3,50.0,81.0,90.0,28.86
32,barrow,5880054.0,71.29,-156.79,-20.2,75.0,90.0,10.29
33,yatou,1786855.0,37.15,122.38,40.77,62.0,100.0,18.5
34,northam,2641434.0,51.03,-4.22,46.0,92.0,31.0,1.01
35,klaksvik,2618795.0,62.23,-6.59,44.6,93.0,100.0,13.87
36,aklavik,5882953.0,68.22,-135.01,-13.0,69.0,90.0,19.46
37,norman wells,6089245.0,65.28,-126.83,-11.2,63.0,20.0,13.87
38,hobart,2163355.0,-42.88,147.33,72.0,56.0,75.0,11.41
40,dikson,1507390.0,73.51,80.55,-5.84,95.0,100.0,5.39
41,nemuro,2128975.0,43.32,145.57,17.6,48.0,20.0,6.93
42,punta arenas,3874787.0,-53.15,-70.92,50.0,66.0,75.0,23.04
43,qaanaaq,3831208.0,77.48,-69.36,-12.03,43.0,55.0,4.43
44,kahului,5847411.0,20.89,-156.47,84.2,51.0,1.0,20.8
45,upernavik,3418910.0,72.79,-56.15,-14.24,94.0,100.0,7.61
46,cape town,3369157.0,-33.93,18.42,60.01,93.0,75.0,9.17
47,khatanga,2022572.0,71.97,102.5,-23.94,96.0,22.0,2.64
48,tasiilaq,3424607.0,65.61,-37.64,28.4,74.0,100.0,28.86
49,lebu,3883457.0,-37.62,-73.65,61.23,85.0,0.0,7.78
50,san cristobal,3628473.0,7.77,-72.22,78.8,74.0,40.0,2.24
51,carnarvon,2074865.0,-24.87,113.63,80.6,69.0,13.0,19.46
52,ribeira grande,3372707.0,38.52,-28.7,54.21,74.0,99.0,5.59
53,igurusi,159380.0,-8.85,33.85,56.7,98.0,98.0,1.19
54,butaritari,2110227.0,3.07,172.79,85.51,72.0,100.0,9.89
55,ekibastuz,1524325.0,51.67,75.37,11.95,78.0,99.0,21.77
56,adjumani,235489.0,3.38,31.79,77.56,26.0,100.0,3.36
57,bengkulu,1649150.0,-3.8,102.27,87.44,58.0,100.0,2.1
58,avarua,4035715.0,-21.21,-159.78,84.2,83.0,100.0,11.41
59,marrakesh,2542997.0,31.63,-8.01,46.4,93.0,0.0,1.12
60,bredasdorp,1015776.0,-34.53,20.04,62.6,72.0,68.0,9.17
61,mankera,1170974.0,31.39,71.44,54.05,52.0,0.0,3.83
62,cherskiy,2126199.0,68.75,161.3,-17.93,96.0,100.0,2.71
63,geraldton,2070998.0,-28.77,114.6,77.0,69.0,15.0,12.75
64,evensk,2125693.0,61.95,159.23,15.19,87.0,100.0,21.16
65,brandon,4148757.0,27.94,-82.29,57.99,71.0,1.0,4.7
66,thompson,6165406.0,55.74,-97.86,15.8,92.0,90.0,4.56
67,antofagasta,3899539.0,-23.65,-70.4,72.0,83.0,75.0,3.36
68,elizabethton,4620634.0,36.35,-82.21,37.4,69.0,90.0,7.4
69,barao de melgaco,3470871.0,-16.19,-55.97,86.0,55.0,100.0,2.24
70,jamestown,5122534.0,42.1,-79.24,36.0,97.0,90.0,3.36
71,lincoln,5072006.0,40.8,-96.67,32.0,92.0,90.0,5.82
72,yen bai,1560349.0,21.7,104.87,61.36,65.0,77.0,2.55
73,kaitangata,2208248.0,-46.28,169.85,66.99,64.0,5.0,10.45
74,huarmey,3939168.0,-10.07,-78.15,76.44,62.0,100.0,4.16
75,ilulissat,3423146.0,69.22,-51.1,8.6,42.0,92.0,11.41
76,wad rawah,364071.0,15.16,33.14,54.01,23.0,0.0,11.68
78,hermanus,3366880.0,-34.42,19.23,57.99,97.0,83.0,13.0
79,ahipara,2194098.0,-35.17,173.17,69.64,84.0,94.0,15.66
80,mount gambier,2156643.0,-37.83,140.77,62.6,82.0,90.0,12.75
81,puerto ayora,3652764.0,-0.74,-90.35,77.0,37.0,54.0,1.01
82,port lincoln,2063036.0,-34.73,135.87,74.1,54.0,32.0,10.18
83,atuona,4020109.0,-9.8,-139.03,80.74,77.0,74.0,13.8
84,luderitz,3355672.0,-26.65,15.16,68.0,82.0,0.0,10.29
85,gua musang,1734651.0,4.88,101.96,83.66,59.0,88.0,2.28
86,ayia galini,264260.0,35.1,24.68,48.2,81.0,85.0,5.99
87,yumen,1528998.0,40.28,97.2,20.57,61.0,0.0,1.07
88,laguna,5364271.0,38.42,-121.42,59.0,82.0,1.0,4.7
90,buala,2109528.0,-8.14,159.59,88.57,59.0,0.0,2.08
91,nushki,1168749.0,29.55,66.02,47.91,67.0,0.0,3.02
92,stettler,6156307.0,52.32,-112.72,20.68,88.0,0.0,1.39
93,vilyuysk,2013392.0,63.76,121.62,-27.17,96.0,93.0,10.42
94,cabedelo,3404558.0,-6.98,-34.83,80.6,88.0,20.0,6.93
95,tukrah,88834.0,32.53,20.58,52.27,59.0,100.0,11.99
96,lazaro cardenas,4026082.0,17.96,-102.2,73.53,79.0,48.0,1.97
97,roma,5134295.0,43.21,-75.46,34.0,100.0,90.0,3.36
98,pasinler,302824.0,39.98,41.68,-5.8,83.0,0.0,2.24
99,esil,1524296.0,51.96,66.4,17.74,87.0,100.0,24.87
100,khash,1160571.0,28.22,61.22,42.93,77.0,0.0,5.06
101,taganak,1684606.0,6.08,118.3,80.6,94.0,40.0,5.99
102,pedro betancourt,3544607.0,22.73,-81.29,73.4,73.0,1.0,5.82
104,fortuna,5563839.0,40.6,-124.16,59.0,87.0,90.0,10.29
105,mumbwa,904422.0,-14.98,27.06,61.57,97.0,27.0,4.9
106,monopoli,6541257.0,40.96,17.29,55.99,93.0,100.0,2.24
107,cartama,2520055.0,36.71,-4.63,51.01,93.0,40.0,5.82
108,yarada,1252783.0,17.65,83.27,69.8,94.0,20.0,3.36
109,alofi,4036284.0,-19.06,-169.92,84.2,79.0,22.0,9.17
110,lompoc,5367788.0,34.64,-120.46,66.0,87.0,1.0,8.05
111,port elizabeth,964420.0,-33.92,25.57,68.0,94.0,75.0,17.22
112,vaini,4032243.0,-21.2,-175.2,80.6,88.0,90.0,12.75
113,oil city,5204278.0,41.43,-79.71,35.01,97.0,90.0,8.05
114,hilo,5855927.0,19.73,-155.09,80.6,57.0,90.0,4.7
115,tuatapere,2180815.0,-46.13,167.68,65.64,51.0,98.0,4.76
116,talnakh,1490256.0,69.49,88.4,3.2,84.0,75.0,11.18
117,atambua,1651103.0,-9.11,124.89,84.45,68.0,0.0,5.91
120,georgetown,1735106.0,5.41,100.34,80.6,78.0,20.0,3.36
121,quatre cocos,1106643.0,-20.21,57.76,77.0,78.0,40.0,14.99
122,pundaguitan,1698289.0,6.37,126.17,82.02,78.0,3.0,6.42
123,luanda,2240449.0,-8.84,13.23,80.6,78.0,20.0,4.7
124,esperance,2071860.0,-33.87,121.9,75.2,53.0,95.0,6.93
125,asfi,2537881.0,32.3,-9.24,50.88,89.0,3.0,5.53
126,hasaki,2112802.0,35.73,140.83,41.0,93.0,75.0,3.36
129,yarmouth,4956335.0,41.71,-70.23,48.99,93.0,90.0,12.75
130,wasilla,5877641.0,61.58,-149.44,8.6,59.0,1.0,5.82
131,iqaluit,5983720.0,63.75,-68.51,-27.0,60.0,5.0,6.93
132,san patricio,3985168.0,19.22,-104.7,78.8,78.0,75.0,6.93
133,griffith,4920986.0,41.53,-87.42,34.0,95.0,90.0,9.71
134,ossora,2122389.0,59.24,163.07,32.81,87.0,100.0,30.65
135,port alfred,964432.0,-33.59,26.89,66.99,98.0,80.0,8.01
136,katobu,1640972.0,-4.94,122.53,86.47,75.0,44.0,2.46
137,salalah,286621.0,17.02,54.09,77.0,78.0,75.0,4.7
138,port moresby,2088122.0,-9.44,147.18,87.8,74.0,75.0,5.82
139,padang,1633419.0,-0.95,100.35,77.05,87.0,93.0,1.16
140,paamiut,3421193.0,61.99,-49.67,18.12,64.0,86.0,23.8
141,rio gallegos,3838859.0,-51.62,-69.22,53.6,46.0,20.0,23.04
142,iquitos,3696183.0,-3.75,-73.25,78.8,88.0,40.0,2.24
143,tabora,149658.0,-5.02,32.8,68.0,100.0,75.0,3.4
144,leirvik,3147822.0,59.78,5.5,44.01,100.0,100.0,12.75
145,homer,5864145.0,59.64,-151.55,12.2,43.0,1.0,18.34
146,tarnogskiy gorodok,484314.0,60.5,43.58,8.35,92.0,100.0,9.08
147,chokurdakh,2126123.0,70.63,147.92,-22.23,86.0,100.0,5.99
148,zhigansk,2012530.0,66.77,123.37,-32.06,89.0,80.0,12.64
149,goderich,5962442.0,43.75,-81.72,35.01,91.0,100.0,1.99
150,vestmanna,2610343.0,62.16,-7.17,44.6,93.0,100.0,13.87
151,tiksi,2015306.0,71.69,128.87,-28.1,67.0,0.0,5.19
152,cantapoy,1718886.0,9.49,125.44,81.88,73.0,0.0,4.0
153,ewa beach,5855051.0,21.32,-158.01,82.4,51.0,40.0,9.17
155,yeppoon,2142316.0,-23.13,150.73,86.0,62.0,40.0,12.75
157,cesvaine,460568.0,56.97,26.32,31.78,90.0,84.0,7.18
158,cabo san lucas,3985710.0,22.89,-109.91,70.0,77.0,40.0,3.36
159,tazovskiy,1489853.0,67.47,78.7,-8.86,98.0,72.0,5.95
160,gunjur,2413419.0,13.2,-16.73,73.4,69.0,91.0,9.17
161,sorland,3137469.0,67.67,12.69,35.04,74.0,100.0,29.84
162,tigil,2120612.0,57.8,158.67,31.77,80.0,100.0,16.33
163,mount isa,2065594.0,-20.73,139.5,77.0,100.0,90.0,8.05
164,tuktoyaktuk,6170031.0,69.45,-133.04,-13.0,75.0,90.0,23.04
165,karasjok,779350.0,69.47,25.51,21.2,79.0,52.0,16.11
166,sinnamary,3380290.0,5.38,-52.95,79.95,83.0,100.0,18.81
167,ponta do sol,2264557.0,32.67,-17.1,60.8,67.0,40.0,3.36
168,parral,4004867.0,26.93,-105.67,57.04,46.0,82.0,7.63
170,marsh harbour,3571913.0,26.54,-77.06,71.67,79.0,39.0,13.62
171,vestmannaeyjar,3412093.0,63.44,-20.27,33.46,96.0,100.0,15.32
173,hovd,1516048.0,48.01,91.64,9.9,55.0,100.0,1.63
174,kafue,915883.0,-15.77,28.18,62.46,94.0,0.0,4.97
175,victoria,1819729.0,22.29,114.16,59.0,93.0,40.0,16.11
176,ladushkin,537229.0,54.57,20.17,41.0,93.0,75.0,11.18
177,bolkhov,575364.0,53.44,36.0,27.64,84.0,29.0,10.76
178,sao felix do xingu,3388847.0,-6.64,-51.99,72.57,95.0,100.0,1.21
179,ladario,3459352.0,-19.0,-57.6,77.14,62.0,0.0,1.32
180,deputatskiy,2028164.0,69.3,139.9,-40.94,100.0,62.0,0.72
181,ibra,287832.0,22.69,58.53,65.44,81.0,74.0,8.01
182,longyearbyen,2729907.0,78.22,15.64,-0.4,59.0,7.0,3.36
183,banjarmasin,1650213.0,-3.32,114.59,80.6,88.0,40.0,3.36
184,humaita,3664078.0,-7.51,-63.02,77.13,89.0,100.0,3.89
185,mahebourg,934322.0,-20.41,57.7,77.0,78.0,40.0,14.99
187,kapaa,5848280.0,22.08,-159.32,80.6,74.0,40.0,10.29
188,havre-saint-pierre,5972291.0,50.23,-63.6,12.2,85.0,75.0,2.24
189,chabahar,1161724.0,25.29,60.64,60.8,82.0,48.0,8.23
190,saint-philippe,935215.0,-21.36,55.77,73.4,78.0,75.0,9.17
191,amahai,1651591.0,-3.33,128.92,83.23,75.0,100.0,4.23
192,waddan,2209055.0,29.16,16.14,55.09,31.0,80.0,3.76
193,avera,4231997.0,33.19,-82.53,46.4,70.0,1.0,5.82
195,pandamatenga,933178.0,-18.53,25.63,66.52,74.0,0.0,3.83
196,douentza,2458334.0,15.0,-2.95,71.22,10.0,94.0,7.27
197,margate,2643044.0,51.38,1.39,46.4,100.0,100.0,13.87
198,letnyaya stavka,535605.0,45.43,43.45,39.81,75.0,100.0,26.62
199,hithadhoo,1282256.0,-0.6,73.08,82.49,77.0,100.0,9.75
201,matagami,6067747.0,49.75,-77.63,28.4,92.0,90.0,5.82
202,beringovskiy,2126710.0,63.05,179.32,14.74,85.0,100.0,5.86
203,faya,110690.0,18.39,42.45,48.2,87.0,40.0,4.7
204,dapaong,2367164.0,10.86,0.2,69.67,10.0,0.0,11.99
205,nantucket,4944903.0,41.28,-70.1,48.2,93.0,90.0,20.8
207,katsuura,2112309.0,35.13,140.3,41.0,86.0,75.0,5.82
208,kailua,5847486.0,21.4,-157.74,82.4,74.0,75.0,10.29
209,carupano,3646382.0,10.67,-63.26,69.39,91.0,88.0,2.82
210,neftcala,147425.0,39.37,49.25,44.44,69.0,0.0,14.92
211,virginia beach,4791259.0,36.85,-75.98,51.8,70.0,40.0,5.82
212,krasnokamensk,2021618.0,50.1,118.04,1.4,88.0,96.0,3.91
214,emerald,2167426.0,-23.53,148.17,80.6,83.0,90.0,12.75
215,buchanan,2278158.0,5.88,-10.05,77.0,100.0,20.0,1.86
216,vesoul,2969561.0,47.58,5.83,39.0,93.0,81.0,5.82
217,derzhavinsk,1524606.0,51.1,66.32,17.47,90.0,100.0,27.81
218,pochutla,3517970.0,15.74,-96.47,80.6,74.0,20.0,6.38
219,medea,2488835.0,36.26,2.75,48.2,76.0,40.0,2.24
220,teguldet,1489822.0,57.31,88.17,15.03,92.0,100.0,9.93
222,hami,1529484.0,42.8,93.45,11.79,62.0,0.0,1.41
224,semnan,116402.0,35.57,53.4,31.14,57.0,0.0,2.59
225,mafinga,155405.0,-7.25,35.07,66.83,98.0,100.0,0.85
226,shakawe,933077.0,-18.37,21.85,68.59,66.0,0.0,3.38
227,moussoro,2427336.0,13.64,16.49,58.93,18.0,0.0,15.01
228,daru,2098329.0,-9.08,143.21,96.6,46.0,36.0,2.82
230,te anau,2181625.0,-45.42,167.72,63.37,79.0,100.0,7.38
232,port hedland,2063042.0,-20.32,118.57,102.2,18.0,0.0,10.29
235,puerto narino,3671387.0,-3.77,-70.38,80.6,100.0,40.0,2.66
236,pangnirtung,6096551.0,66.15,-65.71,-36.89,99.0,100.0,2.98
237,airai,1651810.0,-8.93,125.41,82.2,63.0,48.0,3.29
238,vila velha,3445026.0,-20.33,-40.29,71.6,94.0,75.0,4.7
240,sri aman,1735799.0,1.24,111.46,77.0,100.0,75.0,1.32
242,trinidad,3902377.0,-14.83,-64.9,78.62,82.0,32.0,3.33
243,maragheh,140889.0,37.39,46.24,11.7,70.0,4.0,1.32
244,shahrud,135423.0,36.42,54.98,22.91,49.0,0.0,1.41
245,yulara,6355222.0,-25.24,130.99,91.4,11.0,0.0,14.99
246,casper,5820705.0,42.87,-106.31,36.0,59.0,1.0,18.34
247,sabang,1214026.0,5.89,95.32,82.35,68.0,83.0,12.33
248,honiara,2108502.0,-9.43,159.95,89.6,62.0,20.0,6.93
249,zyryanka,2119283.0,65.75,150.85,-25.98,91.0,100.0,5.64
250,sao filipe,3374210.0,14.9,-24.5,73.94,63.0,21.0,18.75
251,pisco,3932145.0,-13.7,-76.22,75.99,83.0,20.0,19.46
252,zeya,2012593.0,53.75,127.27,-16.19,89.0,18.0,3.58
254,portland,5746545.0,45.52,-122.68,54.0,81.0,90.0,6.93
255,grindavik,3416888.0,63.84,-22.43,35.6,72.0,90.0,11.41
256,souillac,933995.0,-20.52,57.52,77.0,78.0,40.0,14.99
257,oktyabrskoye,515805.0,43.06,44.74,27.72,61.0,0.0,2.44
258,taoudenni,2450173.0,22.68,-3.98,67.41,26.0,10.0,4.63
259,bolobo,2316748.0,-2.17,16.23,73.89,51.0,100.0,2.28
260,sychevka,485280.0,55.83,34.27,27.63,82.0,56.0,10.51
261,lata,2738381.0,40.16,-8.33,50.0,93.0,20.0,3.36
262,tabas,113659.0,33.6,56.92,37.4,60.0,0.0,2.24
263,dhidhdhoo,1337612.0,6.88,73.1,82.02,65.0,100.0,4.36
264,kutum,371745.0,14.2,24.67,39.6,42.0,0.0,5.14
265,san luis,3837056.0,-33.3,-66.34,82.33,24.0,0.0,14.41
266,korla,1529376.0,41.76,86.15,15.31,46.0,0.0,1.63
267,pavlodar,1520240.0,52.3,76.95,3.2,84.0,79.0,11.18
268,mataruska banja,789107.0,43.69,20.61,30.2,100.0,42.0,4.81
269,peniche,2264923.0,39.36,-9.38,51.01,100.0,20.0,2.24
270,vila franca do campo,3372472.0,37.72,-25.43,57.2,87.0,40.0,3.36
271,orsha,624079.0,54.52,30.41,29.7,93.0,1.0,9.01
272,kerema,2094144.0,-7.96,145.78,90.32,51.0,2.0,8.41
273,kenora,5991056.0,49.82,-94.43,21.2,92.0,90.0,4.7
274,malindi,187968.0,-3.22,40.12,76.05,91.0,100.0,3.44
275,east london,1006984.0,-33.02,27.91,73.45,84.0,38.0,20.69
276,tautira,4033557.0,-17.73,-149.15,87.8,62.0,20.0,14.99
277,riverton,5780557.0,40.52,-111.94,39.99,100.0,90.0,5.19
278,ternate,1624041.0,0.8,127.4,82.02,75.0,71.0,4.88
279,pemba,1028918.0,-12.97,40.52,75.7,89.0,100.0,6.15
280,santa maria da vitoria,3450063.0,-13.39,-44.19,68.86,97.0,100.0,5.12
281,itarema,3393692.0,-2.92,-39.92,77.0,95.0,90.0,4.54
282,golden,5423294.0,39.76,-105.22,44.6,30.0,1.0,4.7
284,udachnyy,2014624.0,66.42,112.4,-27.4,74.0,100.0,6.71
285,marawi,1701054.0,8.0,124.29,82.0,81.0,0.0,5.01
286,contai,1344069.0,21.78,87.75,66.61,35.0,0.0,2.98
287,xinqing,2033667.0,48.23,129.5,4.08,79.0,0.0,6.44
288,faanui,4034551.0,-16.48,-151.75,83.16,72.0,62.0,8.79
289,auki,2109701.0,-8.77,160.7,83.89,73.0,0.0,4.07
290,bambous virieux,1106677.0,-20.34,57.76,77.0,78.0,40.0,14.99
291,mabaruma,3377301.0,8.2,-59.78,70.07,98.0,100.0,2.35
292,san quintin,3984997.0,30.48,-115.95,42.01,10.0,0.0,5.99
293,leshukonskoye,535839.0,64.9,45.76,-4.61,98.0,86.0,2.89
294,shingu,1847947.0,33.73,135.98,48.2,93.0,75.0,4.7
295,bairiki,7601762.0,1.33,172.98,89.6,70.0,40.0,4.7
296,pakaur,1260824.0,24.63,87.85,61.12,51.0,0.0,3.6
297,gezing,2925080.0,47.92,13.13,37.0,88.0,90.0,1.12
298,yankton,5233053.0,42.87,-97.4,28.4,92.0,90.0,3.36
299,bandarbeyla,64814.0,9.49,50.81,78.28,81.0,52.0,20.22
300,poum,2138555.0,-20.23,164.02,79.77,82.0,100.0,21.39
301,deep river,5937073.0,46.1,-77.5,33.01,99.0,90.0,2.24
302,tigre,3427761.0,-34.43,-58.58,80.01,69.0,0.0,12.75
303,gulariya,1283368.0,28.23,81.33,55.0,62.0,0.0,1.99
304,skjervoy,777682.0,70.03,20.97,23.05,70.0,64.0,7.74
305,severo-kurilsk,2121385.0,50.68,156.12,18.86,92.0,100.0,40.24
306,khani,610864.0,41.96,42.96,30.2,86.0,0.0,4.7
307,hailar,2037078.0,49.2,119.7,4.84,87.0,100.0,7.0
308,inta,1505579.0,66.03,60.17,-9.24,99.0,87.0,2.06
309,salinopolis,3389822.0,-0.61,-47.36,82.81,81.0,100.0,12.39
310,ancud,3899695.0,-41.87,-73.82,62.6,82.0,76.0,3.36
311,kintampo,2299625.0,8.06,-1.73,71.71,13.0,0.0,1.97
312,gundorovskiy,557984.0,46.78,41.9,34.65,94.0,100.0,19.26
313,nikolskoye,546105.0,59.7,30.79,30.99,79.0,40.0,4.47
314,lagoa,3372964.0,39.05,-27.98,57.72,65.0,100.0,8.63
317,bohunovice,3079121.0,49.66,17.29,30.99,92.0,90.0,13.87
318,westport,4845585.0,41.14,-73.36,50.0,100.0,90.0,10.47
319,puerto carreno,3671519.0,6.19,-67.49,81.36,50.0,100.0,4.74
320,plast,1494907.0,54.37,60.81,21.78,95.0,100.0,11.03
321,ascension,4315067.0,30.22,-90.9,57.2,66.0,1.0,4.43
322,port blair,1259385.0,11.67,92.75,77.85,70.0,78.0,13.78
323,bethel,5282297.0,41.37,-73.41,48.99,100.0,90.0,6.91
324,tucuman,3836873.0,-26.82,-65.22,82.4,74.0,67.0,5.82
325,magadan,2123628.0,59.57,150.8,2.26,78.0,100.0,18.34
326,provideniya,4031574.0,64.38,-173.3,-5.44,69.0,0.0,3.4
327,bathsheba,3374083.0,13.22,-59.52,77.0,83.0,75.0,6.93
328,pervoye maya,828440.0,56.16,44.72,28.99,92.0,90.0,15.66
329,hambantota,1244926.0,6.12,81.12,75.2,100.0,40.0,12.75
330,flin flon,5954718.0,54.77,-101.86,18.68,96.0,100.0,5.66
331,paris,2988507.0,48.85,2.35,39.99,100.0,62.0,3.36
332,half moon bay,5354943.0,37.46,-122.43,62.6,93.0,40.0,3.36
333,yaqui,3979975.0,27.37,-110.17,69.8,56.0,5.0,5.82
335,monrovia,2274895.0,6.3,-10.8,77.0,100.0,20.0,5.79
336,nachingwea,877702.0,-10.38,38.77,69.19,95.0,99.0,2.75
337,samarai,2132606.0,-10.62,150.67,84.76,74.0,79.0,4.03
338,srednekolymsk,2121025.0,67.45,153.68,-23.49,92.0,100.0,2.33
339,beloha,1067565.0,-25.17,45.05,67.44,85.0,0.0,10.22
340,sakata,1853140.0,38.92,139.85,37.4,74.0,75.0,3.36
341,lakes entrance,2160735.0,-37.88,147.98,89.01,50.0,63.0,3.0
342,saldanha,3361934.0,-33.01,17.94,60.8,87.0,83.0,11.41
343,jizan,105298.0,17.33,42.67,71.6,68.0,40.0,2.04
344,manggar,1636426.0,-2.88,108.27,82.26,77.0,90.0,7.83
345,mollendo,3934707.0,-17.02,-72.01,69.73,87.0,52.0,4.21
346,baruun-urt,2032614.0,46.68,113.28,14.2,81.0,0.0,13.67
347,acarau,3408368.0,-2.89,-40.12,77.0,95.0,90.0,4.54
348,tefe,3661944.0,-3.35,-64.71,75.07,96.0,85.0,1.9
349,vostok,2013279.0,46.49,135.88,5.63,77.0,51.0,6.69
350,ponta delgada,3372783.0,37.73,-25.67,55.4,93.0,40.0,4.7
351,coquimbo,3893629.0,-29.95,-71.34,64.4,88.0,0.0,8.05
353,ermelo,1005125.0,-26.53,29.98,55.35,96.0,10.0,5.28
354,kruisfontein,986717.0,-34.0,24.73,64.71,87.0,89.0,22.73
355,koumac,2140558.0,-20.57,164.28,83.79,58.0,100.0,4.68
356,keetmanshoop,3356264.0,-26.58,18.13,62.6,72.0,0.0,11.41
357,abong mbang,2236053.0,3.98,13.18,56.39,31.0,100.0,2.26
358,kyra,2021041.0,49.58,111.98,7.29,71.0,0.0,2.35
359,caravelas,3466980.0,-17.71,-39.25,79.09,84.0,100.0,19.69
360,zaozerne,687726.0,45.16,33.28,44.87,60.0,18.0,8.55
361,koungou,1090225.0,-12.73,45.2,77.0,94.0,89.0,4.7
362,fukuma,1863978.0,33.77,130.47,54.0,81.0,75.0,8.05
363,conakry,2422465.0,9.54,-13.68,74.93,81.0,80.0,5.06
364,asau,686090.0,46.43,26.4,32.0,85.0,25.0,3.31
365,ranfurly,2183774.0,-45.13,170.1,79.0,49.0,70.0,3.0
366,umm bab,289548.0,25.21,50.81,57.99,30.0,40.0,14.99
367,kapit,1737185.0,2.02,112.93,83.7,71.0,90.0,3.13
368,sfantu gheorghe,667303.0,45.87,25.78,33.01,86.0,90.0,1.03
369,dharchula,1272864.0,29.85,80.53,32.77,39.0,45.0,8.79
370,praia,3374333.0,14.92,-23.51,70.63,75.0,87.0,13.87
371,biltine,244878.0,14.53,20.92,59.16,19.0,0.0,16.87
372,paita,3694112.0,-5.09,-81.11,78.21,71.0,100.0,12.91
373,umm lajj,100926.0,25.02,37.27,48.34,32.0,0.0,12.75
374,port macquarie,2152659.0,-31.43,152.92,98.01,52.0,32.0,9.17
375,rio tuba,1691703.0,8.51,117.43,82.58,77.0,0.0,7.4
376,dubrovnik,3201047.0,42.65,18.09,51.8,71.0,40.0,9.17
377,tyukhtet,1488774.0,56.54,89.3,15.91,91.0,93.0,9.55
378,antananarivo,1070940.0,-18.91,47.54,64.4,82.0,75.0,8.05
379,saint george,5546220.0,37.1,-113.58,55.4,54.0,1.0,0.96
380,kuliyapitiya,1238427.0,7.47,80.04,75.2,88.0,20.0,10.29
382,ballina,2177069.0,-28.87,153.57,84.2,65.0,40.0,14.99
383,kirakira,2178753.0,-10.45,161.92,84.58,77.0,3.0,7.16
384,saint-joseph,6690296.0,-21.37,55.62,73.4,78.0,90.0,9.17
385,vaitape,4033077.0,-16.52,-151.75,83.16,72.0,62.0,8.79
386,dunedin,2191562.0,-45.87,170.5,66.99,65.0,0.0,24.14
387,coihaique,3894426.0,-45.58,-72.07,62.6,45.0,5.0,8.05
388,sheopur,1256593.0,25.67,76.7,59.76,36.0,1.0,1.77
389,bonavista,5905393.0,48.65,-53.11,19.99,80.0,53.0,10.0
390,pinawa,6104820.0,50.15,-95.88,14.4,96.0,88.0,4.59
392,kavieng,2094342.0,-2.57,150.8,84.87,72.0,48.0,11.7
393,russell,4047434.0,32.35,-85.2,48.2,80.0,1.0,4.41
394,chimbote,3698304.0,-9.09,-78.58,73.87,75.0,94.0,5.97
395,zaza del medio,3533556.0,22.0,-79.37,64.4,90.0,0.0,2.44
396,panjab,1131162.0,34.39,67.02,-4.0,77.0,0.0,1.88
397,tartagal,3834601.0,-22.52,-63.8,71.89,51.0,8.0,3.02
398,tanout,2439155.0,14.97,8.89,58.17,16.0,0.0,14.2
400,nueva loja,3655185.0,0.08,-76.88,72.5,98.0,100.0,1.43
401,sarangani,1687186.0,5.4,125.46,82.76,74.0,32.0,6.96
402,bilibino,2126682.0,68.05,166.44,-3.91,89.0,100.0,5.28
403,kosa,544318.0,59.94,55.0,7.05,96.0,100.0,2.35
404,boa vista,3664980.0,2.82,-60.67,84.2,62.0,95.0,8.05
405,flinders,6255012.0,-34.58,150.86,99.0,49.0,40.0,9.17
406,husavik,2629833.0,66.04,-17.34,28.4,100.0,90.0,10.29
407,araguacu,3471837.0,-12.93,-49.83,72.59,96.0,100.0,5.17
408,crateus,3401548.0,-5.18,-40.68,75.34,89.0,100.0,3.62
409,shieli,1524801.0,44.17,66.75,24.58,94.0,45.0,11.68
410,yuanping,1786060.0,38.72,112.76,26.56,67.0,100.0,1.14
411,general roca,3855065.0,-39.03,-67.58,86.0,28.0,73.0,14.99
412,shache,1280037.0,38.42,77.24,23.59,66.0,97.0,1.95
413,narsaq,3421719.0,60.92,-46.05,14.0,66.0,96.0,3.36
414,ruteng,1629380.0,-8.61,120.47,83.66,61.0,51.0,4.29
415,pleasanton,5383777.0,37.66,-121.87,62.01,82.0,75.0,9.17
416,itaituba,3397967.0,-4.28,-55.98,73.17,99.0,100.0,2.57
417,ginir,336454.0,7.13,40.7,60.08,81.0,100.0,0.81
418,ormara,1168700.0,25.21,64.64,71.56,70.0,0.0,11.88
419,hudson bay,5978133.0,52.85,-102.38,19.96,96.0,100.0,4.47
420,caete,3468327.0,-19.88,-43.67,69.8,100.0,90.0,6.93
421,curaca,3401331.0,-8.99,-39.91,80.01,59.0,99.0,2.66
422,tessalit,2449893.0,20.2,1.01,71.49,11.0,92.0,8.68
423,verin,3106086.0,41.94,-7.44,39.0,99.0,1.0,0.51
425,puerto madryn,3840092.0,-42.77,-65.04,78.01,24.0,0.0,25.08
427,sokolo,2450849.0,14.73,-6.12,70.88,10.0,75.0,8.25
428,zhengjiatun,2033135.0,43.51,123.51,10.63,75.0,0.0,5.21
429,lavrentiya,4031637.0,65.58,-171.0,-13.47,77.0,0.0,3.15
430,bara,2347758.0,10.37,10.73,55.71,25.0,0.0,7.67
432,sept-iles,6144312.0,50.2,-66.38,16.0,72.0,75.0,4.7
433,port-cartier,6111696.0,50.03,-66.87,16.0,72.0,75.0,4.7
434,seymchan,2121373.0,62.88,152.43,-25.19,95.0,100.0,9.64
435,lashio,1314759.0,22.93,97.75,60.55,37.0,0.0,2.46
436,ostrovnoy,556268.0,68.05,39.51,1.87,98.0,100.0,10.38
437,zaraza,3625066.0,9.35,-65.32,73.67,86.0,100.0,5.84
438,tommot,2015179.0,58.96,126.29,-4.86,95.0,89.0,2.01
439,chaykovskaya,569743.0,58.13,55.54,12.2,92.0,40.0,2.24
441,kudahuvadhoo,1337607.0,2.67,72.89,81.36,79.0,100.0,14.92
442,piney green,4485355.0,34.72,-77.32,50.0,70.0,1.0,8.05
443,havre,3013633.0,49.58,0.33,42.8,100.0,90.0,4.7
444,borba,3405051.0,-4.39,-59.59,73.31,91.0,100.0,0.83
445,rio grande,3451138.0,-32.03,-52.1,71.01,91.0,83.0,7.47
446,doctor juan manuel frutos,3438753.0,-25.37,-55.8,69.71,53.0,0.0,2.46
448,pedara,2523850.0,37.62,15.06,59.0,93.0,75.0,4.7
449,cave spring,4751421.0,37.23,-80.01,39.2,60.0,1.0,11.41
450,shaoguan,1795874.0,24.8,113.58,48.56,84.0,100.0,6.73
451,anadyr,2127202.0,64.75,177.48,15.8,78.0,90.0,13.42
452,chililabombwe,919544.0,-12.36,27.82,62.65,97.0,33.0,3.38
453,port hardy,6111862.0,50.7,-127.42,46.4,81.0,90.0,20.8
454,yuli,2317982.0,9.7,10.27,61.77,24.0,7.0,9.95
455,ambajogai,1278862.0,18.73,76.38,72.7,43.0,52.0,3.38
456,gaur,1283401.0,26.77,85.27,59.23,63.0,0.0,0.87
457,havelock,4470244.0,34.88,-76.9,51.8,66.0,1.0,8.05
458,calama,3897347.0,-22.47,-68.93,57.2,100.0,90.0,14.99
460,wanaka,2184707.0,-44.7,169.15,68.59,50.0,70.0,9.66
461,plyussa,508743.0,58.43,29.37,30.4,83.0,100.0,7.34
462,nhulunbuy,2064735.0,-12.23,136.77,84.2,74.0,75.0,16.11
463,mae sai,1152194.0,20.43,99.88,64.0,100.0,0.0,2.24
464,waingapu,1622318.0,-9.66,120.26,83.86,74.0,61.0,6.71
465,falkenberg,2715573.0,56.91,12.49,42.01,100.0,100.0,16.11
466,gat,293842.0,31.61,34.76,45.0,87.0,0.0,3.36
468,tromso,6453316.0,69.65,18.96,17.6,92.0,75.0,3.36
469,mehamn,778707.0,71.04,27.85,18.21,76.0,100.0,20.45
470,sola,2134814.0,-13.88,167.55,83.3,75.0,63.0,10.25
471,batagay-alyta,2027042.0,67.8,130.41,-33.7,54.0,0.0,4.74
472,rockport,4723422.0,28.02,-97.05,66.99,88.0,1.0,11.41
473,kupang,2057087.0,-10.17,123.58,82.4,88.0,40.0,1.12
474,kilindoni,157429.0,-7.91,39.67,78.33,86.0,100.0,4.94
475,acajutla,3587498.0,13.59,-89.83,73.99,79.0,0.0,9.13
476,berwick,5180119.0,41.05,-76.23,39.99,100.0,90.0,5.82
477,makakilo city,5850554.0,21.35,-158.09,82.4,51.0,40.0,9.17
478,haines junction,5969025.0,60.75,-137.51,-14.78,99.0,100.0,5.93
479,uarini,3661756.0,-2.99,-65.11,75.79,94.0,100.0,2.68
480,palu,1633034.0,-0.89,119.87,87.22,48.0,26.0,2.86
481,jalu,86049.0,29.03,21.55,50.99,46.0,43.0,9.4
482,los llanos de aridane,2514651.0,28.66,-17.92,62.6,63.0,20.0,4.7
483,nome,5870133.0,64.5,-165.41,-13.0,69.0,1.0,3.36
484,menongue,3347353.0,-14.66,17.69,61.77,95.0,100.0,3.18
485,richards bay,962367.0,-28.78,32.04,77.38,81.0,1.0,26.22
486,porbandar,1259395.0,21.64,69.61,70.86,58.0,0.0,11.54
487,iberia,4328254.0,29.95,-91.75,57.0,76.0,90.0,3.31
488,loubomo,2258261.0,-4.2,12.67,72.82,94.0,60.0,1.5
489,merzifon,741609.0,40.87,35.46,23.0,79.0,5.0,3.36
490,mao,2514301.0,39.89,4.27,55.4,93.0,70.0,8.05
491,tabuk,1684803.0,17.42,121.44,80.71,74.0,99.0,6.33
492,verkhnyaya toyma,474470.0,62.23,45.0,5.77,94.0,96.0,7.23
493,galle,1246294.0,6.04,80.22,77.94,82.0,96.0,6.64
494,pangody,1495626.0,65.85,74.49,-9.17,100.0,78.0,4.23
495,innisfail,2162683.0,-17.53,146.03,74.79,97.0,100.0,3.76
496,ixtapa,4004293.0,20.7,-105.2,71.01,100.0,90.0,5.82
497,warrington,2634739.0,53.39,-2.58,46.4,93.0,90.0,9.17
498,panaba,3521972.0,21.28,-88.27,70.41,80.0,0.0,8.93
499,missoula,5666648.0,47.02,-113.8,36.0,96.0,90.0,3.36
500,polyarnyy,506763.0,69.2,33.45,1.4,84.0,75.0,7.36
501,kodinsk,1503037.0,58.69,99.18,17.6,86.0,64.0,10.2
502,oxelosund,2684653.0,58.67,17.1,43.0,87.0,75.0,21.92
503,lillooet,6945979.0,50.69,-121.94,37.4,86.0,20.0,4.7
504,the pas,6164499.0,53.83,-101.25,17.6,78.0,40.0,4.7
505,nelson bay,2155562.0,-32.72,152.15,99.0,44.0,23.0,8.05
506,rokupr,2404303.0,8.67,-12.39,69.39,98.0,8.0,1.41
507,kloulklubed,7671223.0,7.04,134.26,84.2,79.0,75.0,12.75
508,salmas,117656.0,38.2,44.77,10.4,66.0,0.0,6.93
509,pacifica,5380420.0,37.61,-122.49,62.01,93.0,90.0,3.36
510,amapa,3407762.0,1.0,-52.0,73.42,99.0,100.0,2.82
511,shimoda,1852357.0,34.67,138.95,42.8,87.0,75.0,18.34
512,la ronge,6050066.0,55.1,-105.28,23.0,92.0,90.0,6.93
513,bahia blanca,3865086.0,-38.72,-62.27,65.62,46.0,94.0,10.07
514,shatsk,495532.0,54.03,41.71,26.19,87.0,81.0,16.71
515,buritis,3468732.0,-15.62,-46.42,69.1,95.0,100.0,4.92
516,leningradskiy,2123814.0,69.38,178.42,-12.55,96.0,98.0,4.12
517,okha,2122614.0,53.57,142.95,-9.99,85.0,0.0,19.69
518,urengoy,1488414.0,65.97,78.37,-3.14,98.0,90.0,6.42
519,kimamba,157366.0,-6.78,37.13,69.69,98.0,100.0,1.32
520,harsin,131962.0,34.27,47.59,24.8,79.0,0.0,2.95
522,pedasi,3703239.0,7.53,-80.03,78.66,75.0,22.0,20.13
523,redmond,5808079.0,47.67,-122.12,50.0,93.0,75.0,3.36
524,raudeberg,3146487.0,61.99,5.14,45.0,100.0,100.0,24.16
525,codrington,2171099.0,-38.27,141.97,61.56,78.0,100.0,20.42
526,fort dodge,4857486.0,42.5,-94.17,28.4,79.0,40.0,3.36
527,khandyga,2022773.0,62.67,135.6,-40.04,92.0,0.0,0.67
528,cuamba,1047660.0,-14.8,36.54,64.4,98.0,28.0,1.23
529,kamenka,553766.0,51.32,42.77,32.0,85.0,3.0,11.01
530,college,5859699.0,64.86,-147.8,-9.0,74.0,1.0,4.59
531,bam,141736.0,29.11,58.36,46.87,58.0,0.0,0.92
532,awjilah,88533.0,29.11,21.29,50.99,46.0,43.0,9.4
533,olinda,3393536.0,-8.01,-34.86,84.2,79.0,40.0,6.93
534,benjamin hill,4017152.0,30.17,-111.1,64.99,53.0,67.0,5.53
535,kedougou,2250645.0,12.56,-12.17,71.38,11.0,2.0,2.82
536,guerrero negro,4021858.0,27.98,-114.06,62.11,78.0,0.0,9.37
537,farnborough,2649672.0,51.29,-0.76,46.99,93.0,100.0,8.05
538,huanren,2036713.0,41.26,125.37,19.36,72.0,0.0,2.46
539,kuruman,986134.0,-27.45,23.43,66.99,79.0,0.0,8.23
540,hualmay,3939761.0,-11.1,-77.61,74.28,71.0,100.0,5.99
541,mayumba,2399001.0,-3.43,10.66,83.14,75.0,44.0,5.73
542,mongoumba,2384377.0,3.64,18.59,62.65,27.0,100.0,3.47
543,las guacamayas,4026075.0,18.02,-102.22,73.53,79.0,48.0,1.97
544,ust-maya,2013918.0,60.42,134.53,-37.53,94.0,48.0,1.16
545,hobyo,57000.0,5.35,48.53,77.79,81.0,100.0,10.33
546,tura,1254046.0,25.52,90.22,63.28,55.0,0.0,3.38
547,morlaix,2991771.0,48.58,-4.0,46.4,93.0,75.0,8.05
548,southbridge,4951594.0,42.08,-72.03,48.99,100.0,90.0,9.17
549,saint-raymond,6138980.0,45.47,-73.61,35.01,97.0,90.0,16.11
550,maldonado,3441890.0,-34.67,-54.92,64.4,77.0,0.0,5.82
551,praxedis guerrero,3974771.0,31.37,-106.02,62.6,28.0,75.0,5.82
552,nabire,1634614.0,-3.37,135.48,88.45,61.0,52.0,5.93
553,talaya,2120769.0,61.38,152.75,-28.32,95.0,100.0,8.21
556,nanakuli,5851349.0,21.39,-158.15,82.4,51.0,40.0,9.17
557,cururupu,3401148.0,-1.83,-44.87,75.2,96.0,98.0,2.21
559,port hawkesbury,6111867.0,45.62,-61.35,26.01,92.0,20.0,6.93
560,bani walid,2218840.0,31.76,13.99,63.37,20.0,100.0,10.96
561,imbituba,3461370.0,-28.24,-48.67,73.4,83.0,33.0,1.12
562,niteroi,3456283.0,-22.88,-43.1,77.0,69.0,0.0,5.82
563,pevek,2122090.0,69.7,170.31,-9.44,96.0,100.0,0.45
564,luau,876177.0,-10.71,22.22,65.66,97.0,100.0,3.91
565,rapar,1258406.0,23.57,70.63,66.9,67.0,0.0,5.26
566,izhma,554830.0,65.01,53.91,-12.41,99.0,91.0,2.44
567,santa cruz,3904906.0,-17.8,-63.17,80.6,69.0,2.0,5.82
568,trelew,3833883.0,-43.25,-65.31,73.8,25.0,0.0,23.06
570,pandan,1695546.0,14.05,124.17,80.85,77.0,35.0,4.61
572,vardo,777019.0,70.37,31.11,24.26,70.0,100.0,32.32
573,naze,1855540.0,28.37,129.48,71.6,88.0,75.0,12.75
574,sao joao da barra,3448903.0,-21.64,-41.05,73.27,90.0,100.0,5.39
575,saint andrews,4593724.0,34.05,-81.13,48.2,75.0,1.0,4.7
576,san rafael del sur,3616594.0,11.85,-86.44,78.8,61.0,20.0,11.41
577,rolla,4406282.0,37.95,-91.77,37.4,86.0,1.0,1.59
578,kimbe,2093967.0,-5.55,150.14,84.18,81.0,85.0,3.58
579,sobolevo,525426.0,54.43,31.9,28.29,87.0,0.0,8.43
580,kysyl-syr,2021017.0,63.9,122.76,-29.7,94.0,41.0,9.84
581,kelowna,5990579.0,49.88,-119.49,37.4,86.0,90.0,4.7
582,santa rosa,1687894.0,14.31,121.11,86.0,74.0,40.0,2.24
583,grand gaube,934479.0,-20.01,57.66,77.0,78.0,40.0,14.99
584,sioux lookout,6148373.0,50.1,-91.92,24.8,85.0,90.0,4.7
585,kaliyaganj,1268383.0,25.63,88.32,61.27,52.0,0.0,5.12
586,diffa,2445704.0,13.32,12.61,58.96,35.0,0.0,11.21
587,nuuk,3421319.0,64.18,-51.72,14.0,78.0,100.0,8.05
588,hwange,889942.0,-18.37,26.5,67.46,83.0,17.0,3.27
589,la paz,3911925.0,-16.5,-68.15,50.0,61.0,20.0,9.17
590,ambilobe,1082243.0,-13.2,49.05,76.28,89.0,100.0,3.74
591,gdov,561679.0,58.74,27.81,31.57,84.0,83.0,9.6
592,aksarka,1512019.0,66.56,67.8,-9.6,100.0,93.0,3.69
593,cabra,2520645.0,37.47,-4.44,52.0,93.0,75.0,3.36
594,birao,240210.0,10.28,22.79,58.68,19.0,67.0,13.94
595,thaba-tseka,1106835.0,-29.52,28.61,48.7,91.0,0.0,6.98
596,iralaya,3608828.0,15.0,-83.23,78.22,65.0,92.0,15.64
597,qaqortoq,3420846.0,60.72,-46.03,14.0,66.0,89.0,3.36
