Name,ID,Lat,Lng,Max Temp,Humidity,Cloudiness,Wind Speed
vaini,4032243.0,-21.2,-175.2,80.6,88.0,75.0,13.87
tiarei,4033356.0,-17.53,-149.33,87.8,66.0,40.0,11.41
tasiilaq,3424607.0,65.61,-37.64,28.4,79.0,100.0,27.51
ola,2122574.0,59.58,151.28,-3.1,88.0,100.0,15.46
victoria,1819729.0,22.29,114.16,61.0,87.0,40.0,11.41
rikitea,4030556.0,-23.12,-134.97,79.11,77.0,0.0,10.22
seddon,7281807.0,-37.81,144.89,80.01,68.0,75.0,17.22
bethel,5282297.0,41.37,-73.41,48.2,100.0,90.0,6.91
busselton,2075265.0,-33.65,115.33,88.0,30.0,97.0,5.23
upernavik,3418910.0,72.79,-56.15,-14.24,94.0,100.0,7.61
umuarama,3445782.0,-23.77,-53.33,71.91,76.0,0.0,3.29
mount gambier,2156643.0,-37.83,140.77,68.0,64.0,90.0,14.99
fulton,4196508.0,33.77,-84.45,39.99,69.0,1.0,6.93
katsuura,2112309.0,35.13,140.3,42.01,93.0,75.0,9.17
comodoro rivadavia,3860443.0,-45.87,-67.5,73.4,35.0,0.0,28.86
yellowknife,6185377.0,62.46,-114.35,10.4,85.0,90.0,6.93
mayo,4362001.0,38.89,-76.51,45.0,93.0,90.0,10.02
khatanga,2022572.0,71.97,102.5,-23.94,96.0,22.0,2.64
mahebourg,934322.0,-20.41,57.7,77.0,78.0,75.0,11.41
avarua,4035715.0,-21.21,-159.78,82.4,83.0,100.0,11.41
hithadhoo,1282256.0,-0.6,73.08,82.49,77.0,100.0,9.75
hilo,5855927.0,19.73,-155.09,80.6,57.0,90.0,3.36
aden,415189.0,12.78,45.04,76.86,77.0,69.0,7.23
hermanus,3366880.0,-34.42,19.23,57.0,98.0,83.0,5.01
inhambane,1045114.0,-23.86,35.38,77.94,80.0,22.0,9.93
jamestown,5122534.0,42.1,-79.24,34.0,97.0,90.0,3.36
qaanaaq,3831208.0,77.48,-69.36,-12.03,43.0,55.0,4.43
tiksi,2015306.0,71.69,128.87,-28.1,67.0,0.0,5.19
luderitz,3355672.0,-26.65,15.16,66.2,88.0,0.0,11.41
matara,1235846.0,5.95,80.54,78.03,72.0,87.0,6.2
fairbanks,5861897.0,64.84,-147.72,-9.0,74.0,1.0,6.04
viedma,3832899.0,-40.81,-63.0,64.29,50.0,91.0,15.21
mugur-aksy,1498283.0,50.35,90.5,1.15,76.0,4.0,8.01
barrow,5880054.0,71.29,-156.79,-20.2,75.0,75.0,9.17
cape town,3369157.0,-33.93,18.42,60.01,87.0,75.0,2.24
puerto ayora,3652764.0,-0.74,-90.35,77.0,36.0,54.0,3.0
kaitangata,2208248.0,-46.28,169.85,68.0,65.0,5.0,10.45
mataura,6201424.0,-46.19,168.86,77.65,58.0,64.0,0.58
atuona,4020109.0,-9.8,-139.03,80.74,77.0,74.0,13.8
ushuaia,3833367.0,-54.8,-68.3,46.4,75.0,75.0,23.04
morden,6078447.0,49.19,-98.1,21.0,100.0,90.0,11.41
longyearbyen,2729907.0,78.22,15.64,1.4,54.0,7.0,2.06
georgetown,1735106.0,5.41,100.34,84.2,74.0,20.0,3.36
kozhevnikovo,1502257.0,56.26,83.97,19.0,88.0,99.0,10.0
sola,2134814.0,-13.88,167.55,83.3,75.0,63.0,10.25
clyde river,5924351.0,70.47,-68.59,-23.8,67.0,75.0,14.99
mahibadhoo,1337605.0,3.78,72.97,81.25,77.0,100.0,11.9
ixtapa,4004293.0,20.7,-105.2,71.01,100.0,90.0,5.82
geraldton,2070998.0,-28.77,114.6,78.8,65.0,15.0,12.75
quatre cocos,1106643.0,-20.21,57.76,77.0,78.0,75.0,11.41
barcelos,2742416.0,41.54,-8.62,46.4,93.0,20.0,8.05
kapaa,5848280.0,22.08,-159.32,78.8,78.0,20.0,8.05
nikolskoye,546105.0,59.7,30.79,30.99,79.0,20.0,4.47
cidreira,3466165.0,-30.18,-50.21,75.56,68.0,74.0,14.32
sao felix do xingu,3388847.0,-6.64,-51.99,72.57,95.0,100.0,1.21
atar,2381334.0,20.52,-13.05,70.45,24.0,100.0,9.01
tavistock,2636174.0,50.55,-4.14,46.0,93.0,59.0,11.41
lundazi,909299.0,-12.29,33.18,63.21,95.0,9.0,7.34
butaritari,2110227.0,3.07,172.79,85.51,72.0,100.0,9.89
halden,6453395.0,59.12,11.39,43.0,93.0,100.0,8.05
buluang,1722803.0,13.31,123.34,82.72,74.0,39.0,1.86
los llanos de aridane,2514651.0,28.66,-17.92,60.8,63.0,29.0,8.05
arraial do cabo,3471451.0,-22.97,-42.03,75.16,82.0,0.0,6.76
punta arenas,3874787.0,-53.15,-70.92,50.0,66.0,75.0,23.04
okhotsk,2122605.0,59.38,143.3,-11.83,72.0,100.0,15.93
barabai,1650064.0,-2.58,115.38,79.45,88.0,85.0,1.48
martapura,1636022.0,-3.42,114.85,86.0,74.0,40.0,4.7
lasa,3175096.0,46.62,10.7,33.01,85.0,20.0,3.36
san quintin,3984997.0,30.48,-115.95,39.99,22.0,0.0,5.99
sao jose da coroa grande,3388456.0,-8.9,-35.15,81.54,84.0,40.0,15.19
kichera,2022129.0,55.94,110.1,9.9,94.0,100.0,3.04
ancud,3899695.0,-41.87,-73.82,62.6,82.0,76.0,3.36
manokwari,1636308.0,-0.87,134.08,82.04,71.0,76.0,5.86
bathsheba,3374083.0,13.22,-59.52,77.0,83.0,75.0,1.12
scarborough,2638419.0,54.28,-0.4,44.6,100.0,89.0,9.17
thompson,6165406.0,55.74,-97.86,15.8,92.0,90.0,4.56
abha,110690.0,18.22,42.51,46.4,70.0,20.0,6.93
te anau,2181625.0,-45.42,167.72,63.37,79.0,100.0,7.38
deputatskiy,2028164.0,69.3,139.9,-40.94,100.0,62.0,0.72
rio grande,3451138.0,-32.03,-52.1,71.01,92.0,83.0,7.47
albany,5106841.0,42.6,-73.97,39.99,93.0,90.0,5.82
itarema,3393692.0,-2.92,-39.92,77.0,95.0,90.0,4.54
leo,2358382.0,11.1,-2.1,70.36,9.0,0.0,10.74
ponta do sol,2264557.0,32.67,-17.1,59.0,67.0,40.0,4.7
pisco,3932145.0,-13.7,-76.22,73.4,83.0,90.0,17.22
veinticinco de mayo,3833112.0,-35.43,-60.17,73.83,42.0,0.0,15.59
pandan,1695546.0,14.05,124.17,80.85,77.0,35.0,4.61
cherskiy,2126199.0,68.75,161.3,-17.93,96.0,100.0,2.71
sakakah,102527.0,29.97,40.21,44.6,70.0,75.0,5.39
necochea,3430443.0,-38.55,-58.74,62.01,70.0,0.0,1.01
halifax,6324729.0,44.65,-63.57,30.99,100.0,90.0,13.87
bluff,2206939.0,-46.6,168.33,66.49,52.0,57.0,8.52
gladstone,2165478.0,-23.85,151.25,89.01,58.0,75.0,12.75
puro,1692364.0,12.48,123.38,82.81,74.0,2.0,3.11
faanui,4034551.0,-16.48,-151.75,83.16,72.0,62.0,8.79
north platte,5697939.0,41.12,-100.77,39.99,74.0,90.0,3.36
nizhniy kuranakh,2019135.0,58.84,125.49,-2.27,96.0,88.0,1.25
orchard homes,5670128.0,46.86,-114.05,37.4,96.0,90.0,1.05
darnah,87205.0,32.77,22.64,59.99,58.0,100.0,10.67
meulaboh,1214488.0,4.14,96.13,81.23,79.0,100.0,3.94
gaoua,2577162.0,10.3,-3.25,70.3,9.0,0.0,7.16
inyonga,159134.0,-6.72,32.07,65.05,91.0,100.0,2.55
hasaki,2112802.0,35.73,140.83,41.0,93.0,75.0,8.05
hit,95788.0,33.64,42.83,44.6,67.0,0.0,10.63
chuy,3443061.0,-33.7,-53.46,65.59,80.0,3.0,5.46
ahipara,2194098.0,-35.17,173.17,69.64,84.0,94.0,15.66
belmonte,3470137.0,-15.86,-38.88,80.6,83.0,75.0,11.41
saint-philippe,935215.0,-21.36,55.77,73.4,78.0,75.0,8.05
isangel,2136825.0,-19.55,169.27,78.8,83.0,75.0,5.82
poum,2138555.0,-20.23,164.02,79.77,82.0,100.0,21.39
port alfred,964432.0,-33.59,26.89,66.99,98.0,80.0,4.0
tatarsk,1490003.0,55.22,75.98,8.53,92.0,100.0,15.64
reyes,3906478.0,-14.32,-67.38,73.08,92.0,47.0,1.1
broome,5110365.0,42.25,-75.83,36.0,99.0,90.0,8.05
los chiles,3623008.0,11.03,-84.72,66.99,86.0,0.0,18.99
labuan,1733782.0,5.28,115.24,82.4,88.0,75.0,1.12
port hedland,2063042.0,-20.32,118.57,104.0,14.0,0.0,10.29
east london,1006984.0,-33.02,27.91,73.45,84.0,38.0,20.69
teguise,2510573.0,29.06,-13.56,60.8,72.0,0.0,5.82
kloulklubed,7671223.0,7.04,134.26,84.2,79.0,75.0,14.99
ambon,1651531.0,-3.7,128.18,89.6,59.0,20.0,6.93
salalah,286621.0,17.02,54.09,77.0,78.0,75.0,3.36
cortez,5418104.0,37.35,-108.59,35.6,74.0,1.0,3.36
castro,3466704.0,-24.79,-50.01,61.63,93.0,0.0,2.84
cheremshan,569318.0,54.67,51.5,11.97,99.0,44.0,1.3
belyy yar,1510377.0,53.6,91.39,19.4,92.0,40.0,4.47
coruripe,3465329.0,-10.13,-36.18,80.74,87.0,25.0,13.15
saldanha,3361934.0,-33.01,17.94,59.0,93.0,83.0,8.05
mafeteng,932614.0,-29.82,27.24,61.86,78.0,0.0,15.21
pochutla,3517970.0,15.74,-96.47,80.6,78.0,40.0,6.38
zhangzhou,1785018.0,24.51,117.66,60.8,93.0,90.0,2.24
gazanjyk,161974.0,39.24,55.52,30.4,66.0,0.0,2.42
katete,227592.0,-0.78,29.75,63.19,63.0,100.0,0.63
vila franca do campo,3372472.0,37.72,-25.43,57.2,87.0,40.0,4.7
paracuru,3393115.0,-3.41,-39.03,86.0,79.0,20.0,9.17
chernoyerkovskaya,568633.0,45.43,37.77,41.0,73.0,75.0,8.95
mont-dore,2140066.0,-22.28,166.58,89.6,46.0,75.0,11.41
heubach,2905154.0,48.79,9.93,34.0,90.0,90.0,1.12
kodinsk,1503037.0,58.69,99.18,17.6,86.0,64.0,10.2
lebu,3883457.0,-37.62,-73.65,61.23,85.0,0.0,7.78
harper,2276492.0,4.38,-7.72,76.82,96.0,26.0,0.87
severo-kurilsk,2121385.0,50.68,156.12,18.86,92.0,100.0,40.24
new norfolk,2155415.0,-42.78,147.06,71.6,40.0,75.0,11.41
saskylakh,2017155.0,71.92,114.08,-20.51,93.0,99.0,16.46
thai nguyen,1566319.0,21.59,105.84,59.0,62.0,18.0,14.99
saint george,5546220.0,37.1,-113.58,55.4,54.0,1.0,0.96
caravelas,3466980.0,-17.71,-39.25,79.09,84.0,100.0,19.69
honningsvag,779554.0,70.98,25.97,22.96,70.0,100.0,23.31
saint-ambroise,6137381.0,48.55,-71.33,27.0,92.0,90.0,9.17
sisimiut,3419842.0,66.94,-53.67,4.08,94.0,100.0,5.99
nampula,1033356.0,-15.12,39.27,73.4,94.0,75.0,3.36
carnarvon,2074865.0,-24.87,113.63,84.2,58.0,13.0,19.46
bambous virieux,1106677.0,-20.34,57.76,77.0,78.0,75.0,11.41
lazaro cardenas,4026082.0,17.96,-102.2,73.53,79.0,48.0,1.97
wakkanai,2127515.0,45.41,141.67,23.0,53.0,40.0,21.92
poya,2138522.0,-21.35,165.15,78.48,83.0,73.0,21.63
sapulpa,4550881.0,36.0,-96.11,50.0,66.0,90.0,7.7
bengkulu,1649150.0,-3.8,102.27,87.44,58.0,100.0,2.1
namatanai,2090021.0,-3.67,152.43,85.87,71.0,67.0,12.68
labuhan,8079926.0,-6.88,112.21,84.81,69.0,0.0,4.83
rosetown,6127749.0,51.55,-108.0,32.0,96.0,100.0,10.02
haines junction,5969025.0,60.75,-137.51,-14.78,99.0,100.0,5.93
mar del plata,3430863.0,-38.0,-57.56,66.2,59.0,0.0,8.05
biograd na moru,3204121.0,43.94,15.45,53.01,93.0,40.0,5.82
huarmey,3939168.0,-10.07,-78.15,76.44,62.0,100.0,4.16
kahului,5847411.0,20.89,-156.47,82.4,54.0,40.0,10.29
bundaberg,2173323.0,-24.85,152.35,89.01,55.0,75.0,11.41
torbay,6167817.0,47.67,-52.73,19.99,78.0,5.0,16.11
kalmar,2702261.0,56.66,16.36,42.8,87.0,98.0,11.41
pecos,5528182.0,31.42,-103.49,62.6,21.0,1.0,11.41
sorong,1626542.0,-0.88,131.25,90.16,58.0,79.0,3.76
sambava,1056899.0,-14.27,50.17,71.71,96.0,96.0,2.01
narsaq,3421719.0,60.92,-46.05,12.2,72.0,96.0,5.82
kangaatsiaq,3422683.0,68.31,-53.46,13.21,92.0,100.0,10.6
tuktoyaktuk,6170031.0,69.45,-133.04,-13.0,75.0,90.0,25.28
kodiak,5866583.0,57.79,-152.41,17.6,61.0,90.0,19.46
norman wells,6089245.0,65.28,-126.83,-13.0,62.0,20.0,13.87
palana,2122262.0,59.12,159.97,31.35,75.0,100.0,31.36
zhicheng,1784554.0,30.3,111.5,39.99,78.0,75.0,9.42
bredasdorp,1015776.0,-34.53,20.04,62.6,72.0,68.0,18.34
pingdingshan,1798827.0,33.74,113.3,38.46,72.0,100.0,12.24
hobart,2163355.0,-42.88,147.33,71.6,40.0,75.0,16.11
jiazi,1805935.0,22.88,116.07,55.36,82.0,93.0,12.01
tessalit,2449893.0,20.2,1.01,71.49,11.0,92.0,8.68
sabang,1214026.0,5.89,95.32,82.35,68.0,83.0,12.33
esperance,2071860.0,-33.87,121.9,80.6,44.0,95.0,5.82
vila velha,3445026.0,-20.33,-40.29,71.6,94.0,75.0,2.24
araouane,2460954.0,18.9,-3.53,75.78,9.0,100.0,7.18
presidente epitacio,3452331.0,-21.76,-52.12,72.52,77.0,0.0,4.23
ossora,2122389.0,59.24,163.07,32.81,87.0,100.0,30.65
kabalo,215668.0,-6.05,26.92,69.37,93.0,75.0,1.66
grand gaube,934479.0,-20.01,57.66,77.0,78.0,75.0,11.41
port elizabeth,964420.0,-33.92,25.57,68.0,94.0,75.0,24.16
chifeng,2038067.0,42.27,118.96,26.2,31.0,0.0,4.56
erzin,296852.0,36.96,36.2,50.0,57.0,0.0,13.87
rafai,236524.0,4.95,23.92,65.95,25.0,84.0,5.66
kirakira,2178753.0,-10.45,161.92,84.58,77.0,3.0,7.16
pojuca,3466641.0,-12.42,-38.33,80.6,83.0,75.0,11.41
mitsamiouli,921786.0,-11.38,43.28,76.95,87.0,100.0,1.88
vicuna,3868308.0,-30.03,-70.71,62.6,93.0,6.0,5.82
kamskiye polyany,553350.0,55.43,51.42,24.8,85.0,40.0,6.71
sars,498501.0,56.55,57.14,15.1,97.0,98.0,4.74
chapais,5919850.0,49.78,-74.85,24.8,79.0,90.0,10.29
bulgan,2032201.0,48.81,103.53,12.96,65.0,58.0,3.87
waitati,2179825.0,-45.75,170.57,68.0,65.0,0.0,24.14
kibala,2425791.0,9.11,18.35,68.0,20.0,37.0,5.03
bunia,217695.0,1.57,30.25,75.29,42.0,100.0,4.16
christchurch,2192362.0,-43.53,172.63,80.01,64.0,0.0,13.87
bubaque,2374583.0,11.28,-15.83,77.86,70.0,92.0,7.76
talnakh,1490256.0,69.49,88.4,3.2,84.0,75.0,11.18
shelburne,6145890.0,44.08,-80.2,36.0,93.0,90.0,6.93
ukiah,5404476.0,39.15,-123.21,57.99,93.0,90.0,5.82
tucuman,3836873.0,-26.82,-65.22,82.4,69.0,67.0,6.93
hobyo,57000.0,5.35,48.53,77.79,81.0,100.0,10.33
rio gallegos,3838859.0,-51.62,-69.22,50.0,53.0,0.0,20.8
flinders,6255012.0,-34.58,150.86,100.99,44.0,40.0,11.41
tuatapere,2180815.0,-46.13,167.68,65.64,51.0,98.0,4.76
ekimchan,2024461.0,53.07,132.97,-11.31,93.0,100.0,3.04
ilulissat,3423146.0,69.22,-51.1,8.6,46.0,92.0,10.29
inta,1505579.0,66.03,60.17,-9.24,99.0,87.0,2.06
tommot,2015179.0,58.96,126.29,-4.86,95.0,89.0,2.01
harvard,4895282.0,42.42,-88.61,34.0,97.0,90.0,8.05
nandi,1272473.0,13.39,77.7,79.0,93.0,20.0,2.17
hambantota,1244926.0,6.12,81.12,75.2,94.0,75.0,13.87
camacupa,3351014.0,-12.02,17.48,63.91,97.0,100.0,2.24
ugoofaaru,1337619.0,5.67,73.0,82.18,66.0,100.0,5.44
airai,1651810.0,-8.93,125.41,82.2,63.0,48.0,3.29
husavik,2629833.0,66.04,-17.34,28.4,92.0,90.0,10.29
willowmore,939676.0,-33.29,23.49,61.9,86.0,66.0,4.63
north bend,5742974.0,43.41,-124.22,55.0,100.0,90.0,4.7
nambour,2155862.0,-26.63,152.95,86.0,70.0,25.0,3.0
acajutla,3587498.0,13.59,-89.83,73.99,81.0,0.0,9.13
guozhen,1809263.0,34.37,107.36,32.11,96.0,100.0,4.12
mandalgovi,2030065.0,45.76,106.27,15.35,67.0,0.0,10.42
chimbote,3698304.0,-9.09,-78.58,73.87,75.0,94.0,5.97
lixourion,258175.0,38.2,20.43,57.85,72.0,96.0,13.2
trairi,3386177.0,-3.28,-39.27,75.9,94.0,100.0,2.84
vlahita,662570.0,46.35,25.52,25.5,92.0,32.0,2.08
hay river,5972762.0,60.82,-115.8,14.0,85.0,90.0,4.7
auki,2109701.0,-8.77,160.7,83.89,73.0,0.0,4.07
kano,2335204.0,12.0,8.52,58.95,17.0,0.0,11.07
dingle,1714733.0,11.0,122.67,84.15,73.0,31.0,5.21
cayenne,3382160.0,4.93,-52.33,75.2,94.0,75.0,6.93
coihaique,3894426.0,-45.58,-72.07,59.0,51.0,5.0,5.82
rogozno,3087072.0,52.75,16.99,33.01,100.0,90.0,5.82
mersin,311728.0,36.86,34.65,44.6,62.0,75.0,6.93
adrar,2381972.0,20.5,-10.07,73.99,23.0,100.0,10.58
dhidhdhoo,1337612.0,6.88,73.1,82.02,65.0,100.0,4.36
avera,4231997.0,33.19,-82.53,45.0,75.0,1.0,9.17
nouadhibou,2377457.0,20.93,-17.03,64.4,68.0,100.0,20.8
bayan,2038421.0,46.08,127.4,18.0,39.0,7.0,9.01
anadyr,2127202.0,64.75,177.48,15.8,78.0,90.0,13.42
vardo,777019.0,70.37,31.11,24.26,70.0,100.0,32.32
sitka,5557293.0,57.05,-135.33,44.6,81.0,90.0,23.04
pangnirtung,6096551.0,66.15,-65.71,-36.89,99.0,100.0,2.98
padang,1633419.0,-0.95,100.35,77.05,87.0,93.0,1.16
khandyga,2022773.0,62.67,135.6,-40.04,92.0,0.0,0.67
itaituba,3397967.0,-4.28,-55.98,73.17,99.0,100.0,2.57
zhumadian,1783873.0,32.98,114.03,36.64,86.0,100.0,11.45
ribeira grande,3372707.0,38.52,-28.7,54.21,74.0,99.0,5.59
bogo,1724435.0,11.05,124.01,90.0,66.0,18.0,6.51
iqaluit,5983720.0,63.75,-68.51,-29.0,66.0,5.0,10.29
languyan,1707511.0,5.26,120.08,82.53,74.0,12.0,3.76
guadalupe y calvo,4005370.0,26.1,-106.97,42.37,89.0,13.0,2.33
fortuna,5563839.0,40.6,-124.16,59.0,87.0,90.0,10.29
oni,612592.0,42.58,43.44,15.75,73.0,0.0,4.92
komsomolskiy,1513491.0,40.43,71.72,37.4,86.0,90.0,4.7
la palma,5364022.0,33.85,-118.05,64.99,82.0,75.0,5.82
hovd,1516048.0,48.01,91.64,9.9,55.0,100.0,1.63
pangody,1495626.0,65.85,74.49,-9.17,100.0,78.0,4.23
leningradskiy,2123814.0,69.38,178.42,-12.55,96.0,98.0,4.12
namtsy,2019488.0,62.72,129.67,-54.4,55.0,90.0,2.24
tikamgarh,1254534.0,24.75,78.83,57.81,43.0,0.0,1.39
changli,1815656.0,39.7,119.15,51.01,49.0,40.0,9.93
santa rosa,1687894.0,14.31,121.11,86.0,74.0,40.0,5.82
mangrol,1263752.0,21.12,70.12,70.77,52.0,0.0,11.92
kem,551145.0,64.96,34.58,4.39,93.0,19.0,6.33
rocha,3440777.0,-34.48,-54.33,60.19,78.0,0.0,4.52
baculin,1729469.0,7.45,126.58,81.0,74.0,6.0,4.97
kruisfontein,986717.0,-34.0,24.73,64.71,87.0,89.0,22.73
pacific grove,5380437.0,36.62,-121.92,61.0,87.0,75.0,5.82
kavaratti,1267390.0,10.57,72.64,80.98,64.0,100.0,2.28
lahat,1638775.0,-3.8,103.53,77.54,78.0,87.0,4.05
petropavlovsk-kamchatskiy,2122104.0,53.05,158.65,26.6,73.0,40.0,4.47
monchique,2266268.0,37.32,-8.56,46.99,100.0,1.0,2.24
vanimo,2084442.0,-2.67,141.3,83.39,82.0,61.0,16.02
batagay-alyta,2027042.0,67.8,130.41,-33.7,54.0,0.0,4.74
gornyye klyuchi,2023918.0,45.25,133.5,11.14,71.0,0.0,4.34
sande,2841895.0,53.5,8.01,36.0,91.0,75.0,6.93
karratha,6620339.0,-20.74,116.85,85.62,71.0,0.0,9.53
pokrovsk,704422.0,48.28,37.18,31.91,88.0,100.0,13.24
kysyl-syr,2021017.0,63.9,122.76,-29.7,94.0,41.0,9.84
santa maria del oro,3984078.0,25.93,-105.37,49.84,64.0,33.0,3.51
dikson,1507390.0,73.51,80.55,-5.84,95.0,100.0,5.39
yar-sale,1486321.0,66.83,70.83,-8.99,100.0,83.0,3.53
havre-saint-pierre,5972291.0,50.23,-63.6,15.8,85.0,90.0,2.24
la ronge,6050066.0,55.1,-105.28,23.0,92.0,90.0,6.93
slave lake,6149374.0,55.28,-114.77,17.6,92.0,1.0,6.93
constitucion,3893726.0,-35.33,-72.42,63.21,67.0,0.0,5.7
nurlat,516716.0,54.43,50.81,12.6,97.0,8.0,1.7
berlevag,780687.0,70.86,29.09,23.07,69.0,100.0,27.11
lompoc,5367788.0,34.64,-120.46,60.01,93.0,90.0,9.17
urucui,3385658.0,-7.23,-44.56,74.91,85.0,100.0,2.37
tautira,4033557.0,-17.73,-149.15,87.8,66.0,40.0,11.41
westport,4845585.0,41.14,-73.36,48.99,100.0,90.0,10.47
worland,5843495.0,44.02,-107.96,37.4,64.0,90.0,8.05
bull savanna,3491161.0,17.89,-77.59,66.34,92.0,92.0,2.55
mahajanga,1062663.0,-15.72,46.32,75.2,94.0,75.0,5.82
tabas,113659.0,33.6,56.92,35.6,60.0,0.0,4.97
bonavista,5905393.0,48.65,-53.11,19.99,80.0,53.0,8.99
iralaya,3608828.0,15.0,-83.23,78.22,65.0,92.0,15.64
posse,3452599.0,-14.09,-46.37,69.4,96.0,100.0,4.41
goderich,5962442.0,43.75,-81.72,36.0,92.0,100.0,3.0
barranca,3946820.0,-10.75,-77.77,71.92,90.0,100.0,18.61
oranjestad,3577154.0,12.52,-70.03,78.8,83.0,40.0,8.05
san luis,3837056.0,-33.3,-66.34,82.33,24.0,0.0,14.41
alofi,4036284.0,-19.06,-169.92,82.4,83.0,22.0,9.17
souillac,933995.0,-20.52,57.52,77.0,78.0,75.0,11.41
bowen,2174444.0,-20.02,148.23,77.0,94.0,75.0,8.05
vila do maio,3374120.0,15.13,-23.22,77.0,47.0,75.0,12.75
nantucket,4944903.0,41.28,-70.1,48.2,93.0,90.0,18.34
sandviken,2680075.0,60.62,16.77,44.01,78.0,78.0,5.01
tigil,2120612.0,57.8,158.67,31.77,80.0,100.0,16.33
acobamba,3927758.0,-11.35,-75.66,41.99,93.0,100.0,1.39
kavieng,2094342.0,-2.57,150.8,84.87,72.0,48.0,11.7
letlhakane,933535.0,-21.42,25.58,73.15,53.0,17.0,6.73
odessa,698740.0,46.48,30.73,28.4,68.0,0.0,2.24
atbasar,1526038.0,51.8,68.33,14.67,91.0,100.0,20.94
santa isabel,3450188.0,-23.32,-46.22,68.0,93.0,0.0,4.7
palm beach,4167505.0,26.71,-80.04,64.4,68.0,1.0,4.7
phek,1259784.0,25.67,94.5,52.66,50.0,0.0,1.12
ust-kuyga,2013921.0,70.02,135.6,-41.46,93.0,1.0,7.92
andilamena,1076194.0,-17.02,48.58,65.08,94.0,100.0,6.8
batemans bay,2176639.0,-35.72,150.18,93.0,86.0,0.0,3.0
boende,218680.0,-0.22,20.87,70.16,41.0,41.0,2.75
parrita,3622537.0,9.52,-84.32,69.8,68.0,40.0,11.41
erdenet,2031405.0,49.03,104.08,8.67,68.0,10.0,3.53
yarada,1252783.0,17.65,83.27,71.6,94.0,20.0,3.36
derbent,566532.0,42.07,48.29,45.39,60.0,28.0,19.89
escanaba,4992232.0,45.75,-87.06,33.01,96.0,90.0,3.36
mumford,2297810.0,5.26,-0.76,72.14,90.0,95.0,2.55
oussouye,2246901.0,12.48,-16.55,70.66,50.0,50.0,7.05
wasilla,5877641.0,61.58,-149.44,8.6,59.0,1.0,0.81
kieta,2094027.0,-6.22,155.63,84.7,72.0,17.0,8.59
hofn,2630299.0,64.25,-15.21,38.97,86.0,82.0,16.04
araci,3471854.0,-11.33,-38.97,74.77,89.0,71.0,7.85
estelle,4323873.0,29.85,-90.11,57.2,81.0,1.0,3.36
along,1278969.0,28.17,94.77,52.05,48.0,0.0,3.91
praia da vitoria,3372760.0,38.73,-27.07,53.6,87.0,20.0,3.94
san jose,5392171.0,37.34,-121.89,61.0,77.0,75.0,8.05
quelimane,1028434.0,-17.88,36.89,71.78,91.0,99.0,4.45
morehead,4301317.0,37.27,-87.18,37.4,74.0,90.0,5.82
nanortalik,3421765.0,60.14,-45.24,23.34,75.0,100.0,16.98
tromso,6453316.0,69.65,18.96,17.6,92.0,75.0,4.7
chicama,3698359.0,-7.84,-79.15,73.4,94.0,75.0,8.05
anshun,1817968.0,26.25,105.93,35.92,89.0,9.0,4.74
khandbari,1283217.0,27.37,87.2,37.15,77.0,48.0,2.71
chlorakas,146490.0,34.8,32.41,46.4,75.0,90.0,9.17
alice springs,2077895.0,-23.7,133.88,95.0,13.0,0.0,16.11
ocos,3592086.0,14.51,-92.19,78.8,88.0,20.0,2.24
muriwai beach,2186363.0,-36.82,174.45,84.99,64.0,19.0,18.34
port moresby,2088122.0,-9.44,147.18,87.8,74.0,75.0,5.82
manicore,3663503.0,-5.81,-61.3,72.79,94.0,100.0,2.73
merauke,2082539.0,-8.47,140.33,90.57,57.0,0.0,9.17
sur,286245.0,22.57,59.53,67.05,83.0,7.0,5.73
port lincoln,2063036.0,-34.73,135.87,74.1,54.0,32.0,10.18
beloha,1067565.0,-25.17,45.05,67.44,85.0,0.0,10.22
bakhmach,712967.0,51.18,32.76,31.95,92.0,61.0,10.94
carutapera,3402648.0,-1.2,-46.02,82.24,81.0,100.0,19.93
aykhal,2027296.0,66.0,111.5,-27.4,74.0,100.0,6.71
maniitsoq,3421982.0,65.42,-52.9,13.89,85.0,100.0,13.18
moose factory,6078372.0,51.26,-80.61,26.6,92.0,90.0,3.36
vostok,2013279.0,46.49,135.88,5.63,77.0,51.0,6.69
puerto leguizamo,3671437.0,-0.19,-74.78,75.33,93.0,100.0,2.06
cabedelo,3404558.0,-6.98,-34.83,80.6,88.0,20.0,5.82
somotillo,3616234.0,13.04,-86.91,73.58,76.0,0.0,3.8
jalu,86049.0,29.03,21.55,50.99,46.0,43.0,9.4
coahuayana,4013679.0,18.73,-103.68,68.0,88.0,40.0,3.67
miri,1738050.0,4.41,114.01,86.0,84.0,75.0,5.82
surt,2210554.0,31.21,16.59,57.7,36.0,100.0,12.66
prince rupert,6113406.0,54.32,-130.32,44.6,81.0,90.0,17.22
kendari,1640344.0,-3.94,122.5,88.68,65.0,22.0,4.12
kaseda,1859964.0,31.42,130.32,51.8,93.0,75.0,3.36
huilong,1806840.0,31.81,121.66,53.01,92.0,100.0,14.23
flin flon,5954718.0,54.77,-101.86,18.68,96.0,100.0,5.66
sao miguel do araguaia,3448455.0,-13.28,-50.16,72.52,97.0,100.0,4.59
dunedin,2191562.0,-45.87,170.5,68.0,65.0,0.0,24.14
ekhabi,2122614.0,53.51,142.97,-9.99,85.0,0.0,19.69
cabo rojo,4562996.0,18.09,-67.15,77.0,84.0,90.0,3.36
gidole,336526.0,5.65,37.37,68.31,71.0,99.0,0.6
astana,1526273.0,51.18,71.45,10.4,78.0,100.0,26.84
taviano,2522968.0,39.98,18.09,55.0,87.0,40.0,12.75
pevek,2122090.0,69.7,170.31,-9.44,96.0,100.0,0.45
camana,3945985.0,-16.62,-72.71,67.42,84.0,100.0,2.62
arman,2127060.0,59.7,150.17,-2.0,92.0,100.0,19.26
rawson,3839307.0,-43.3,-65.1,72.3,42.0,0.0,20.87
la orilla,4001056.0,17.98,-102.23,73.53,79.0,48.0,1.97
qinzhou,1797551.0,21.95,108.62,56.52,65.0,14.0,16.4
polunochnoye,1494482.0,60.87,60.42,1.06,97.0,100.0,3.4
nhulunbuy,2064735.0,-12.23,136.77,84.2,74.0,75.0,14.99
emerald,2167426.0,-23.53,148.17,82.4,78.0,90.0,11.41
naze,1855540.0,28.37,129.48,71.6,88.0,75.0,13.87
ostersund,2685750.0,63.18,14.64,42.8,86.0,100.0,16.11
nome,5870133.0,64.5,-165.41,-16.6,82.0,1.0,8.72
quzhou,1797264.0,28.96,118.87,43.57,98.0,100.0,2.95
kholm-zhirkovskiy,549718.0,55.52,33.47,27.28,87.0,22.0,10.29
havelock,4470244.0,34.88,-76.9,50.0,71.0,1.0,5.82
thinadhoo,1337610.0,0.53,72.93,82.31,80.0,100.0,14.03
asino,1511309.0,57.0,86.15,10.76,91.0,37.0,10.63
tahta,347634.0,26.77,31.5,44.6,67.0,0.0,5.82
paamiut,3421193.0,61.99,-49.67,18.12,64.0,86.0,23.8
det udom,1610940.0,14.91,105.08,78.8,74.0,100.0,5.82
port hardy,6111862.0,50.7,-127.42,46.4,81.0,90.0,23.04
portland,5746545.0,45.52,-122.68,54.0,81.0,90.0,10.29
riachao do jacuipe,3451474.0,-11.81,-39.39,77.88,82.0,98.0,4.47
windhoek,3352136.0,-22.56,17.08,66.2,25.0,0.0,4.7
awbari,2219235.0,26.59,12.78,55.18,20.0,49.0,9.15
nyurba,2018735.0,63.28,118.33,-14.87,97.0,100.0,7.81
polovragi,669955.0,45.18,23.8,34.48,78.0,19.0,1.97
conceicao do araguaia,3401845.0,-8.26,-49.26,74.84,95.0,100.0,2.53
namibe,3347019.0,-15.2,12.15,74.68,74.0,69.0,12.53
fez,2548885.0,34.04,-5.0,50.0,76.0,10.0,8.05
zhigansk,2012530.0,66.77,123.37,-32.06,89.0,80.0,12.64
dicabisagan,1715015.0,17.08,122.42,76.06,83.0,96.0,5.46
alirajpur,1258815.0,22.3,74.35,65.62,38.0,0.0,5.35
vaitape,4033077.0,-16.52,-151.75,83.16,72.0,62.0,8.79
pahrump,5509851.0,36.21,-115.98,55.0,32.0,1.0,5.82
ginda,1253628.0,30.69,78.49,43.03,41.0,0.0,4.29
bara,2347758.0,10.37,10.73,55.71,25.0,0.0,7.67
yarim,69559.0,14.3,44.38,49.53,70.0,32.0,5.35
tokat,738742.0,40.42,36.58,19.92,68.0,0.0,4.72
iraquara,3461023.0,-12.25,-41.62,67.48,84.0,100.0,2.73
bilma,2446796.0,18.69,12.92,59.02,17.0,58.0,11.01
provideniya,4031574.0,64.38,-173.3,-5.44,69.0,0.0,3.4
gerash,133595.0,27.67,54.14,41.0,93.0,20.0,3.11
kaduna,2335727.0,10.52,7.44,60.71,20.0,0.0,10.94
elk river,5025471.0,45.3,-93.57,30.0,79.0,90.0,4.7
shakawe,933077.0,-18.37,21.85,68.59,66.0,0.0,3.38
sembe,2255304.0,1.65,14.58,65.32,29.0,100.0,0.83
nara,1855612.0,34.69,135.8,51.01,65.0,75.0,2.44
sayyan,70979.0,15.17,44.32,46.31,86.0,0.0,3.96
melita,6071900.0,49.27,-101.0,19.99,95.0,97.0,4.56
kolyvan,1502822.0,55.31,82.74,12.2,78.0,100.0,15.66
mama,2020313.0,58.31,112.9,12.83,93.0,100.0,8.75
springbok,3361142.0,-29.66,17.89,56.16,80.0,98.0,14.09
buchanan,2278158.0,5.88,-10.05,77.0,100.0,20.0,1.86
guarapuava,3461879.0,-25.4,-51.46,58.41,93.0,0.0,2.1
phuket,1151253.0,8.0,98.25,84.2,62.0,20.0,8.59
bullhead city,5287565.0,35.15,-114.57,66.2,29.0,1.0,8.3
kutoarjo,1638981.0,-7.72,109.91,81.05,70.0,33.0,3.62
svetlogorsk,10722858.0,52.63,29.73,30.49,96.0,29.0,7.9
saint-augustin,6137462.0,51.23,-58.65,14.79,79.0,40.0,10.8
homer,5864145.0,59.64,-151.55,12.2,43.0,1.0,11.41
heishan,2036959.0,41.69,122.11,20.62,39.0,0.0,7.76
lata,2738381.0,40.16,-8.33,50.0,100.0,40.0,4.7
spornoye,578283.0,50.84,37.29,33.8,86.0,34.0,15.66
tambo,3927995.0,-14.8,-73.92,48.15,90.0,100.0,2.01
domoni,921906.0,-12.26,44.53,79.36,84.0,100.0,9.26
krasnoarmeysk,542464.0,51.02,45.7,33.01,60.0,70.0,7.0
drovyanaya,2024848.0,51.58,113.03,-9.4,83.0,0.0,2.24
vanavara,2013727.0,60.34,102.28,18.86,80.0,62.0,14.85
karakol,1528121.0,42.49,78.39,19.08,53.0,100.0,3.49
manati,4566137.0,18.43,-66.49,78.8,78.0,75.0,6.93
brigantine,4500920.0,39.41,-74.36,46.0,75.0,1.0,14.99
ostrovnoy,556268.0,68.05,39.51,1.87,98.0,100.0,10.38
rehoboth,3353540.0,-23.32,17.08,65.08,26.0,0.0,11.34
kawambwa,176555.0,-9.79,29.08,62.71,97.0,100.0,1.14
takestan,113491.0,36.07,49.7,21.2,92.0,0.0,2.24
wagar,364027.0,16.15,36.2,55.96,87.0,0.0,14.41
coihueco,3894406.0,-36.62,-71.83,77.0,47.0,0.0,12.75
kimbe,2093967.0,-5.55,150.14,84.18,81.0,85.0,3.58
talagante,3870306.0,-33.67,-70.93,77.0,27.0,37.0,12.75
muros,3115824.0,42.78,-9.06,48.0,93.0,75.0,5.82
chancay,3944399.0,-11.57,-77.27,73.4,88.0,75.0,16.11
chake chake,160677.0,-5.25,39.77,82.08,84.0,100.0,10.18
sao filipe,3374210.0,14.9,-24.5,73.94,63.0,21.0,18.75
colares,2269142.0,38.8,-9.45,52.0,100.0,0.0,3.36
pizarro,3672086.0,4.95,-77.37,80.49,82.0,100.0,11.79
xai-xai,1024552.0,-25.05,33.64,70.93,84.0,22.0,3.94
farah,1142263.0,32.5,62.5,42.37,66.0,13.0,2.93
fukue,1863997.0,32.69,128.84,53.6,71.0,75.0,17.22
krasnoborsk,542423.0,61.56,45.93,6.57,94.0,100.0,7.65
paraiso,3622547.0,9.84,-83.87,69.8,68.0,40.0,11.41
asyut,359783.0,27.18,31.18,42.8,87.0,0.0,9.17
sangar,2017215.0,63.92,127.47,-35.7,92.0,0.0,4.83
castelu,682589.0,44.25,28.33,28.4,79.0,0.0,9.17
cabo san lucas,3985710.0,22.89,-109.91,70.0,77.0,75.0,3.36
tahe,2034615.0,52.33,124.73,5.02,79.0,0.0,1.63
naryan-mar,523392.0,67.67,53.09,-9.47,100.0,100.0,6.96
xinxiang,1788572.0,35.31,113.87,39.15,43.0,100.0,8.3
yantai,1787093.0,37.53,121.4,37.94,66.0,77.0,11.36
vilyuysk,2013392.0,63.76,121.62,-27.17,96.0,93.0,10.42
klaksvik,2618795.0,62.23,-6.59,44.6,93.0,100.0,17.22
ambilobe,1082243.0,-13.2,49.05,76.28,89.0,100.0,3.74
hellvik,3133472.0,59.92,5.78,43.0,100.0,75.0,24.16
san cristobal,3628473.0,7.77,-72.22,78.8,78.0,40.0,2.24
tharad,1254638.0,24.4,71.63,66.42,34.0,0.0,2.26
matay,352628.0,28.42,30.78,41.23,73.0,0.0,5.91
bilibino,2126682.0,68.05,166.44,-3.91,89.0,100.0,5.28
keti bandar,1174451.0,24.14,67.45,69.67,84.0,0.0,9.19
okha,2122614.0,53.57,142.95,-9.99,85.0,0.0,19.69
ciudad guayana,3645528.0,8.35,-62.65,73.08,84.0,100.0,7.52
komatipoort,988290.0,-25.43,31.95,69.01,93.0,31.0,3.27
cesis,460570.0,57.31,25.27,33.01,97.0,77.0,5.01
lakatoro,2136697.0,-16.1,167.42,86.0,66.0,20.0,6.93
qax,585227.0,41.42,46.92,24.8,79.0,0.0,2.24
esmeraldas,3464008.0,-19.76,-44.31,69.8,100.0,90.0,3.36
oga,3175788.0,46.46,10.35,26.6,92.0,100.0,1.12
carlsbad,5334223.0,33.16,-117.35,62.01,87.0,90.0,1.3
krasnyy chikoy,2012349.0,50.36,108.75,9.55,83.0,0.0,1.68
srednekolymsk,2121025.0,67.45,153.68,-23.49,92.0,100.0,2.33
tukrah,88834.0,32.53,20.58,52.27,59.0,100.0,11.99
nuuk,3421319.0,64.18,-51.72,14.0,72.0,100.0,6.93
pestovo,510364.0,58.59,35.8,26.33,82.0,100.0,9.31
college,5859699.0,64.86,-147.8,-9.0,74.0,1.0,4.59
maputo,1040652.0,-25.97,32.59,75.2,83.0,20.0,5.82
luanda,2240449.0,-8.84,13.23,78.8,83.0,40.0,3.36
asau,686090.0,46.43,26.4,30.0,92.0,25.0,2.24
lavrentiya,4031637.0,65.58,-171.0,-13.47,77.0,0.0,3.15
tezu,1254709.0,27.92,96.17,59.7,41.0,0.0,2.26
gondar,336014.0,12.6,37.47,53.35,28.0,65.0,6.22
taoudenni,2450173.0,22.68,-3.98,67.41,26.0,10.0,4.63
baraya,3689232.0,3.15,-75.05,82.4,65.0,100.0,2.24
omboue,2396853.0,-1.57,9.26,75.56,95.0,2.0,1.48
new bern,4481682.0,35.11,-77.04,50.0,76.0,1.0,5.82
huanren,2036713.0,41.26,125.37,19.36,72.0,0.0,2.46
mantua,3174050.0,45.17,10.78,46.99,100.0,75.0,2.24
embonas,262698.0,36.23,27.86,51.01,71.0,87.0,3.36
grindavik,3416888.0,63.84,-22.43,35.6,72.0,90.0,9.17
hukuntsi,933726.0,-24.0,21.75,75.04,50.0,87.0,12.17
waddan,2209055.0,29.16,16.14,55.09,31.0,80.0,3.76
muravlenko,1540711.0,63.79,74.52,-0.24,95.0,88.0,9.53
gat,293842.0,31.61,34.76,45.0,87.0,0.0,3.36
tilichiki,2120591.0,60.47,166.1,26.33,85.0,100.0,17.07
bhinmal,1275920.0,25.0,72.25,64.15,39.0,0.0,3.98
tlacotepec,3515473.0,20.07,-97.87,52.9,85.0,98.0,3.69
otane,2185329.0,-39.88,176.63,87.01,50.0,0.0,11.99
sinnamary,3380290.0,5.38,-52.95,79.95,83.0,100.0,18.81
el sauce,3619382.0,12.89,-86.54,67.69,70.0,0.0,5.21
vao,2137773.0,-22.67,167.48,77.95,79.0,91.0,15.61
gbarnga,2277060.0,7.0,-9.47,65.77,96.0,0.0,0.31
camopi,3382226.0,3.17,-52.32,72.55,99.0,100.0,2.19
chokurdakh,2126123.0,70.63,147.92,-22.23,86.0,100.0,5.99
punta gorda,4169452.0,26.93,-82.05,60.8,66.0,1.0,11.41
hazorasp,1513957.0,41.32,61.07,24.8,79.0,31.0,11.41
ulladulla,2145554.0,-35.35,150.47,95.0,44.0,40.0,11.41
chhoti sadri,1274284.0,24.38,74.7,59.81,43.0,0.0,4.83
aksu,1529660.0,41.12,80.26,24.3,71.0,100.0,1.88
samarai,2132606.0,-10.62,150.67,84.76,74.0,79.0,4.03
